<?xml version="1.0" encoding="UTF-8"?>
<gpx xmlns="http://www.topografix.com/GPX/1/1" >
	<wpt lat="57.1436" lon="-2.0985">
		<name>Aberdeen railway station</name>
		<desc>Aberdeen railway station</desc>
		<link href="https://en.wikipedia.org/wiki/Aberdeen_railway_station" >https://en.wikipedia.org/wiki/Aberdeen_railway_station</link>
	</wpt>
	<wpt lat="56.0549" lon="-3.3005">
		<name>Aberdour railway station</name>
		<desc>Aberdour railway station</desc>
		<link href="https://en.wikipedia.org/wiki/Aberdour_railway_station" >https://en.wikipedia.org/wiki/Aberdour_railway_station</link>
	</wpt>
	<wpt lat="57.6096" lon="-4.9135">
		<name>Achanalt railway station</name>
		<desc>Achanalt railway station</desc>
		<link href="https://en.wikipedia.org/wiki/Achanalt_railway_station" >https://en.wikipedia.org/wiki/Achanalt_railway_station</link>
	</wpt>
	<wpt lat="57.5793" lon="-5.0723">
		<name>Achnasheen railway station</name>
		<desc>Achnasheen railway station</desc>
		<link href="https://en.wikipedia.org/wiki/Achnasheen_railway_station" >https://en.wikipedia.org/wiki/Achnasheen_railway_station</link>
	</wpt>
	<wpt lat="57.4821" lon="-5.3331">
		<name>Achnashellach railway station</name>
		<desc>Achnashellach railway station</desc>
		<link href="https://en.wikipedia.org/wiki/Achnashellach_railway_station" >https://en.wikipedia.org/wiki/Achnashellach_railway_station</link>
	</wpt>
	<wpt lat="55.8434" lon="-3.6064">
		<name>Addiewell railway station</name>
		<desc>Addiewell railway station</desc>
		<link href="https://en.wikipedia.org/wiki/Addiewell_railway_station" >https://en.wikipedia.org/wiki/Addiewell_railway_station</link>
	</wpt>
	<wpt lat="55.782331" lon="-3.994509">
		<name>Airbles railway station</name>
		<desc>Airbles railway station</desc>
		<link href="https://en.wikipedia.org/wiki/Airbles_railway_station" >https://en.wikipedia.org/wiki/Airbles_railway_station</link>
	</wpt>
	<wpt lat="55.864" lon="-3.9826">
		<name>Airdrie railway station</name>
		<desc>Airdrie railway station</desc>
		<link href="https://en.wikipedia.org/wiki/Airdrie_railway_station" >https://en.wikipedia.org/wiki/Airdrie_railway_station</link>
	</wpt>
	<wpt lat="55.8637" lon="-4.2107">
		<name>Alexandra Parade railway station</name>
		<desc>Alexandra Parade railway station</desc>
		<link href="https://en.wikipedia.org/wiki/Alexandra_Parade_railway_station" >https://en.wikipedia.org/wiki/Alexandra_Parade_railway_station</link>
	</wpt>
	<wpt lat="55.9853" lon="-4.5773">
		<name>Alexandria railway station</name>
		<desc>Alexandria railway station</desc>
		<link href="https://en.wikipedia.org/wiki/Alexandria_railway_station" >https://en.wikipedia.org/wiki/Alexandria_railway_station</link>
	</wpt>
	<wpt lat="56.1179" lon="-3.7883">
		<name>Alloa railway station</name>
		<desc>Alloa railway station</desc>
		<link href="https://en.wikipedia.org/wiki/Alloa_railway_station" >https://en.wikipedia.org/wiki/Alloa_railway_station</link>
	</wpt>
	<wpt lat="57.6944" lon="-4.2497">
		<name>Alness railway station</name>
		<desc>Alness railway station</desc>
		<link href="https://en.wikipedia.org/wiki/Alness_railway_station" >https://en.wikipedia.org/wiki/Alness_railway_station</link>
	</wpt>
	<wpt lat="58.3882" lon="-3.7059">
		<name>Altnabreac railway station</name>
		<desc>Altnabreac railway station</desc>
		<link href="https://en.wikipedia.org/wiki/Altnabreac_railway_station" >https://en.wikipedia.org/wiki/Altnabreac_railway_station</link>
	</wpt>
	<wpt lat="55.8598" lon="-4.2703">
		<name>Anderston railway station</name>
		<desc>Anderston railway station</desc>
		<link href="https://en.wikipedia.org/wiki/Anderston_railway_station" >https://en.wikipedia.org/wiki/Anderston_railway_station</link>
	</wpt>
	<wpt lat="54.9835" lon="-3.26227">
		<name>Annan railway station</name>
		<desc>Annan railway station</desc>
		<link href="https://en.wikipedia.org/wiki/Annan_railway_station" >https://en.wikipedia.org/wiki/Annan_railway_station</link>
	</wpt>
	<wpt lat="55.8898" lon="-4.3217">
		<name>Anniesland railway station</name>
		<desc>Anniesland railway station</desc>
		<link href="https://en.wikipedia.org/wiki/Anniesland_railway_station" >https://en.wikipedia.org/wiki/Anniesland_railway_station</link>
	</wpt>
	<wpt lat="56.5594" lon="-2.5892">
		<name>Arbroath railway station</name>
		<desc>Arbroath railway station</desc>
		<link href="https://en.wikipedia.org/wiki/Arbroath_railway_station" >https://en.wikipedia.org/wiki/Arbroath_railway_station</link>
	</wpt>
	<wpt lat="57.8816" lon="-4.3622">
		<name>Ardgay railway station</name>
		<desc>Ardgay railway station</desc>
		<link href="https://en.wikipedia.org/wiki/Ardgay_railway_station" >https://en.wikipedia.org/wiki/Ardgay_railway_station</link>
	</wpt>
	<wpt lat="56.3019" lon="-4.7217">
		<name>Ardlui railway station</name>
		<desc>Ardlui railway station</desc>
		<link href="https://en.wikipedia.org/wiki/Ardlui_railway_station" >https://en.wikipedia.org/wiki/Ardlui_railway_station</link>
	</wpt>
	<wpt lat="55.6396" lon="-4.8205">
		<name>Ardrossan Harbour railway station</name>
		<desc>Ardrossan Harbour railway station</desc>
		<link href="https://en.wikipedia.org/wiki/Ardrossan_Harbour_railway_station" >https://en.wikipedia.org/wiki/Ardrossan_Harbour_railway_station</link>
	</wpt>
	<wpt lat="55.641" lon="-4.8001">
		<name>Ardrossan South Beach railway station</name>
		<desc>Ardrossan South Beach railway station</desc>
		<link href="https://en.wikipedia.org/wiki/Ardrossan_South_Beach_railway_station" >https://en.wikipedia.org/wiki/Ardrossan_South_Beach_railway_station</link>
	</wpt>
	<wpt lat="55.6402" lon="-4.8122">
		<name>Ardrossan Town railway station</name>
		<desc>Ardrossan Town railway station</desc>
		<link href="https://en.wikipedia.org/wiki/Ardrossan_Town_railway_station" >https://en.wikipedia.org/wiki/Ardrossan_Town_railway_station</link>
	</wpt>
	<wpt lat="55.857" lon="-4.251">
		<name>Argyle Street railway station</name>
		<desc>Argyle Street railway station</desc>
		<link href="https://en.wikipedia.org/wiki/Argyle_Street_railway_station" >https://en.wikipedia.org/wiki/Argyle_Street_railway_station</link>
	</wpt>
	<wpt lat="56.913" lon="-5.8395">
		<name>Arisaig railway station</name>
		<desc>Arisaig railway station</desc>
		<link href="https://en.wikipedia.org/wiki/Arisaig_railway_station" >https://en.wikipedia.org/wiki/Arisaig_railway_station</link>
	</wpt>
	<wpt lat="55.8864" lon="-3.6931">
		<name>Armadale railway station (Scotland)</name>
		<desc>Armadale railway station (Scotland)</desc>
		<link href="https://en.wikipedia.org/wiki/Armadale_railway_station_(Scotland)" >https://en.wikipedia.org/wiki/Armadale_railway_station_(Scotland)</link>
	</wpt>
	<wpt lat="56.2033" lon="-4.7232">
		<name>Arrochar and Tarbet railway station</name>
		<desc>Arrochar and Tarbet railway station</desc>
		<link href="https://en.wikipedia.org/wiki/Arrochar_and_Tarbet_railway_station" >https://en.wikipedia.org/wiki/Arrochar_and_Tarbet_railway_station</link>
	</wpt>
	<wpt lat="55.8888" lon="-4.2484">
		<name>Ashfield railway station (Scotland)</name>
		<desc>Ashfield railway station (Scotland)</desc>
		<link href="https://en.wikipedia.org/wiki/Ashfield_railway_station_(Scotland)" >https://en.wikipedia.org/wiki/Ashfield_railway_station_(Scotland)</link>
	</wpt>
	<wpt lat="57.3945" lon="-5.4553">
		<name>Attadale railway station</name>
		<desc>Attadale railway station</desc>
		<link href="https://en.wikipedia.org/wiki/Attadale_railway_station" >https://en.wikipedia.org/wiki/Attadale_railway_station</link>
	</wpt>
	<wpt lat="55.4698" lon="-4.2955">
		<name>Auchinleck railway station</name>
		<desc>Auchinleck railway station</desc>
		<link href="https://en.wikipedia.org/wiki/Auchinleck_railway_station" >https://en.wikipedia.org/wiki/Auchinleck_railway_station</link>
	</wpt>
	<wpt lat="57.1886" lon="-3.8288">
		<name>Aviemore railway station</name>
		<desc>Aviemore railway station</desc>
		<link href="https://en.wikipedia.org/wiki/Aviemore_railway_station" >https://en.wikipedia.org/wiki/Aviemore_railway_station</link>
	</wpt>
	<wpt lat="55.4583" lon="-4.6258">
		<name>Ayr railway station</name>
		<desc>Ayr railway station</desc>
		<link href="https://en.wikipedia.org/wiki/Ayr_railway_station" >https://en.wikipedia.org/wiki/Ayr_railway_station</link>
	</wpt>
	<wpt lat="55.8445" lon="-4.1137">
		<name>Baillieston railway station</name>
		<desc>Baillieston railway station</desc>
		<link href="https://en.wikipedia.org/wiki/Baillieston_railway_station" >https://en.wikipedia.org/wiki/Baillieston_railway_station</link>
	</wpt>
	<wpt lat="56.0021" lon="-4.5831">
		<name>Balloch railway station</name>
		<desc>Balloch railway station</desc>
		<link href="https://en.wikipedia.org/wiki/Balloch_railway_station" >https://en.wikipedia.org/wiki/Balloch_railway_station</link>
	</wpt>
	<wpt lat="56.4747" lon="-2.8384">
		<name>Balmossie railway station</name>
		<desc>Balmossie railway station</desc>
		<link href="https://en.wikipedia.org/wiki/Balmossie_railway_station" >https://en.wikipedia.org/wiki/Balmossie_railway_station</link>
	</wpt>
	<wpt lat="56.8439" lon="-5.096">
		<name>Banavie railway station</name>
		<desc>Banavie railway station</desc>
		<link href="https://en.wikipedia.org/wiki/Banavie_railway_station" >https://en.wikipedia.org/wiki/Banavie_railway_station</link>
	</wpt>
	<wpt lat="55.5614" lon="-4.6514">
		<name>Barassie railway station</name>
		<desc>Barassie railway station</desc>
		<link href="https://en.wikipedia.org/wiki/Barassie_railway_station" >https://en.wikipedia.org/wiki/Barassie_railway_station</link>
	</wpt>
	<wpt lat="55.8513" lon="-4.0738">
		<name>Bargeddie railway station</name>
		<desc>Bargeddie railway station</desc>
		<link href="https://en.wikipedia.org/wiki/Bargeddie_railway_station" >https://en.wikipedia.org/wiki/Bargeddie_railway_station</link>
	</wpt>
	<wpt lat="55.8778" lon="-4.2235">
		<name>Barnhill railway station</name>
		<desc>Barnhill railway station</desc>
		<link href="https://en.wikipedia.org/wiki/Barnhill_railway_station" >https://en.wikipedia.org/wiki/Barnhill_railway_station</link>
	</wpt>
	<wpt lat="55.804" lon="-4.3971">
		<name>Barrhead railway station</name>
		<desc>Barrhead railway station</desc>
		<link href="https://en.wikipedia.org/wiki/Barrhead_railway_station" >https://en.wikipedia.org/wiki/Barrhead_railway_station</link>
	</wpt>
	<wpt lat="55.0975" lon="-4.7822">
		<name>Barrhill railway station</name>
		<desc>Barrhill railway station</desc>
		<link href="https://en.wikipedia.org/wiki/Barrhill_railway_station" >https://en.wikipedia.org/wiki/Barrhill_railway_station</link>
	</wpt>
	<wpt lat="56.4932" lon="-2.7456">
		<name>Barry Links railway station</name>
		<desc>Barry Links railway station</desc>
		<link href="https://en.wikipedia.org/wiki/Barry_Links_railway_station" >https://en.wikipedia.org/wiki/Barry_Links_railway_station</link>
	</wpt>
	<wpt lat="55.8971" lon="-3.6362">
		<name>Bathgate railway station</name>
		<desc>Bathgate railway station</desc>
		<link href="https://en.wikipedia.org/wiki/Bathgate_railway_station" >https://en.wikipedia.org/wiki/Bathgate_railway_station</link>
	</wpt>
	<wpt lat="55.917" lon="-4.3324">
		<name>Bearsden railway station</name>
		<desc>Bearsden railway station</desc>
		<link href="https://en.wikipedia.org/wiki/Bearsden_railway_station" >https://en.wikipedia.org/wiki/Bearsden_railway_station</link>
	</wpt>
	<wpt lat="56.9001" lon="-5.764">
		<name>Beasdale railway station</name>
		<desc>Beasdale railway station</desc>
		<link href="https://en.wikipedia.org/wiki/Beasdale_railway_station" >https://en.wikipedia.org/wiki/Beasdale_railway_station</link>
	</wpt>
	<wpt lat="57.4783" lon="-4.4699">
		<name>Beauly railway station</name>
		<desc>Beauly railway station</desc>
		<link href="https://en.wikipedia.org/wiki/Beauly_railway_station" >https://en.wikipedia.org/wiki/Beauly_railway_station</link>
	</wpt>
	<wpt lat="55.8567" lon="-4.224">
		<name>Bellgrove railway station</name>
		<desc>Bellgrove railway station</desc>
		<link href="https://en.wikipedia.org/wiki/Bellgrove_railway_station" >https://en.wikipedia.org/wiki/Bellgrove_railway_station</link>
	</wpt>
	<wpt lat="55.8171" lon="-4.0243">
		<name>Bellshill railway station</name>
		<desc>Bellshill railway station</desc>
		<link href="https://en.wikipedia.org/wiki/Bellshill_railway_station" >https://en.wikipedia.org/wiki/Bellshill_railway_station</link>
	</wpt>
	<wpt lat="55.9038" lon="-4.2249">
		<name>Bishopbriggs railway station</name>
		<desc>Bishopbriggs railway station</desc>
		<link href="https://en.wikipedia.org/wiki/Bishopbriggs_railway_station" >https://en.wikipedia.org/wiki/Bishopbriggs_railway_station</link>
	</wpt>
	<wpt lat="55.9024" lon="-4.5009">
		<name>Bishopton railway station</name>
		<desc>Bishopton railway station</desc>
		<link href="https://en.wikipedia.org/wiki/Bishopton_railway_station" >https://en.wikipedia.org/wiki/Bishopton_railway_station</link>
	</wpt>
	<wpt lat="55.8844" lon="-3.7502">
		<name>Blackridge railway station</name>
		<desc>Blackridge railway station</desc>
		<link href="https://en.wikipedia.org/wiki/Blackridge_railway_station" >https://en.wikipedia.org/wiki/Blackridge_railway_station</link>
	</wpt>
	<wpt lat="56.7653" lon="-3.8496">
		<name>Blair Atholl railway station</name>
		<desc>Blair Atholl railway station</desc>
		<link href="https://en.wikipedia.org/wiki/Blair_Atholl_railway_station" >https://en.wikipedia.org/wiki/Blair_Atholl_railway_station</link>
	</wpt>
	<wpt lat="55.8665" lon="-4.0427">
		<name>Blairhill railway station</name>
		<desc>Blairhill railway station</desc>
		<link href="https://en.wikipedia.org/wiki/Blairhill_railway_station" >https://en.wikipedia.org/wiki/Blairhill_railway_station</link>
	</wpt>
	<wpt lat="55.7972" lon="-4.0867">
		<name>Blantyre railway station</name>
		<desc>Blantyre railway station</desc>
		<link href="https://en.wikipedia.org/wiki/Blantyre_railway_station" >https://en.wikipedia.org/wiki/Blantyre_railway_station</link>
	</wpt>
	<wpt lat="55.9372" lon="-4.7124">
		<name>Bogston railway station</name>
		<desc>Bogston railway station</desc>
		<link href="https://en.wikipedia.org/wiki/Bogston_railway_station" >https://en.wikipedia.org/wiki/Bogston_railway_station</link>
	</wpt>
	<wpt lat="55.9311" lon="-4.4929">
		<name>Bowling railway station</name>
		<desc>Bowling railway station</desc>
		<link href="https://en.wikipedia.org/wiki/Bowling_railway_station" >https://en.wikipedia.org/wiki/Bowling_railway_station</link>
	</wpt>
	<wpt lat="55.9404" lon="-4.8042">
		<name>Branchton railway station</name>
		<desc>Branchton railway station</desc>
		<link href="https://en.wikipedia.org/wiki/Branchton_railway_station" >https://en.wikipedia.org/wiki/Branchton_railway_station</link>
	</wpt>
	<wpt lat="55.8275" lon="-3.6675">
		<name>Breich railway station</name>
		<desc>Breich railway station</desc>
		<link href="https://en.wikipedia.org/wiki/Breich_railway_station" >https://en.wikipedia.org/wiki/Breich_railway_station</link>
	</wpt>
	<wpt lat="56.1566" lon="-3.9573">
		<name>Bridge of Allan railway station</name>
		<desc>Bridge of Allan railway station</desc>
		<link href="https://en.wikipedia.org/wiki/Bridge_of_Allan_railway_station" >https://en.wikipedia.org/wiki/Bridge_of_Allan_railway_station</link>
	</wpt>
	<wpt lat="56.5162" lon="-4.7642">
		<name>Bridge of Orchy railway station</name>
		<desc>Bridge of Orchy railway station</desc>
		<link href="https://en.wikipedia.org/wiki/Bridge_of_Orchy_railway_station" >https://en.wikipedia.org/wiki/Bridge_of_Orchy_railway_station</link>
	</wpt>
	<wpt lat="55.8484" lon="-4.225">
		<name>Bridgeton railway station</name>
		<desc>Bridgeton railway station</desc>
		<link href="https://en.wikipedia.org/wiki/Bridgeton_railway_station" >https://en.wikipedia.org/wiki/Bridgeton_railway_station</link>
	</wpt>
	<wpt lat="58.0131" lon="-3.8523">
		<name>Brora railway station</name>
		<desc>Brora railway station</desc>
		<link href="https://en.wikipedia.org/wiki/Brora_railway_station" >https://en.wikipedia.org/wiki/Brora_railway_station</link>
	</wpt>
	<wpt lat="56.4677" lon="-2.8741">
		<name>Broughty Ferry railway station</name>
		<desc>Broughty Ferry railway station</desc>
		<link href="https://en.wikipedia.org/wiki/Broughty_Ferry_railway_station" >https://en.wikipedia.org/wiki/Broughty_Ferry_railway_station</link>
	</wpt>
	<wpt lat="55.9420651" lon="-3.1008498">
		<name>Brunstane railway station</name>
		<desc>Brunstane railway station</desc>
		<link href="https://en.wikipedia.org/wiki/Brunstane_railway_station" >https://en.wikipedia.org/wiki/Brunstane_railway_station</link>
	</wpt>
	<wpt lat="55.8169" lon="-4.203">
		<name>Burnside railway station</name>
		<desc>Burnside railway station</desc>
		<link href="https://en.wikipedia.org/wiki/Burnside_railway_station" >https://en.wikipedia.org/wiki/Burnside_railway_station</link>
	</wpt>
	<wpt lat="56.0573" lon="-3.2335">
		<name>Burntisland railway station</name>
		<desc>Burntisland railway station</desc>
		<link href="https://en.wikipedia.org/wiki/Burntisland_railway_station" >https://en.wikipedia.org/wiki/Burntisland_railway_station</link>
	</wpt>
	<wpt lat="55.7805" lon="-4.2623">
		<name>Busby railway station</name>
		<desc>Busby railway station</desc>
		<link href="https://en.wikipedia.org/wiki/Busby_railway_station" >https://en.wikipedia.org/wiki/Busby_railway_station</link>
	</wpt>
	<wpt lat="55.88798" lon="-3.88781">
		<name>Caldercruix railway station</name>
		<desc>Caldercruix railway station</desc>
		<link href="https://en.wikipedia.org/wiki/Caldercruix_railway_station" >https://en.wikipedia.org/wiki/Caldercruix_railway_station</link>
	</wpt>
	<wpt lat="55.8195" lon="-4.1731">
		<name>Cambuslang railway station</name>
		<desc>Cambuslang railway station</desc>
		<link href="https://en.wikipedia.org/wiki/Cambuslang_railway_station" >https://en.wikipedia.org/wiki/Cambuslang_railway_station</link>
	</wpt>
	<wpt lat="56.0062" lon="-3.8182">
		<name>Camelon railway station</name>
		<desc>Camelon railway station</desc>
		<link href="https://en.wikipedia.org/wiki/Camelon_railway_station" >https://en.wikipedia.org/wiki/Camelon_railway_station</link>
	</wpt>
	<wpt lat="56.189693" lon="-3.046855">
		<name>Cameron Bridge railway station</name>
		<desc>Cameron Bridge railway station</desc>
		<link href="https://en.wikipedia.org/wiki/Cameron_Bridge_railway_station" >https://en.wikipedia.org/wiki/Cameron_Bridge_railway_station</link>
	</wpt>
	<wpt lat="56.1411" lon="-3.2609">
		<name>Cardenden railway station</name>
		<desc>Cardenden railway station</desc>
		<link href="https://en.wikipedia.org/wiki/Cardenden_railway_station" >https://en.wikipedia.org/wiki/Cardenden_railway_station</link>
	</wpt>
	<wpt lat="55.8526" lon="-4.3395">
		<name>Cardonald railway station</name>
		<desc>Cardonald railway station</desc>
		<link href="https://en.wikipedia.org/wiki/Cardonald_railway_station" >https://en.wikipedia.org/wiki/Cardonald_railway_station</link>
	</wpt>
	<wpt lat="55.9601" lon="-4.6526">
		<name>Cardross railway station</name>
		<desc>Cardross railway station</desc>
		<link href="https://en.wikipedia.org/wiki/Cardross_railway_station" >https://en.wikipedia.org/wiki/Cardross_railway_station</link>
	</wpt>
	<wpt lat="55.8076" lon="-3.9556">
		<name>Carfin railway station</name>
		<desc>Carfin railway station</desc>
		<link href="https://en.wikipedia.org/wiki/Carfin_railway_station" >https://en.wikipedia.org/wiki/Carfin_railway_station</link>
	</wpt>
	<wpt lat="54.891" lon="-2.934">
		<name>Carlisle railway station</name>
		<desc>Carlisle railway station</desc>
		<link href="https://en.wikipedia.org/wiki/Carlisle_railway_station" >https://en.wikipedia.org/wiki/Carlisle_railway_station</link>
	</wpt>
	<wpt lat="55.73115" lon="-3.8489">
		<name>Carluke railway station</name>
		<desc>Carluke railway station</desc>
		<link href="https://en.wikipedia.org/wiki/Carluke_railway_station" >https://en.wikipedia.org/wiki/Carluke_railway_station</link>
	</wpt>
	<wpt lat="55.8343" lon="-4.1581">
		<name>Carmyle railway station</name>
		<desc>Carmyle railway station</desc>
		<link href="https://en.wikipedia.org/wiki/Carmyle_railway_station" >https://en.wikipedia.org/wiki/Carmyle_railway_station</link>
	</wpt>
	<wpt lat="56.5007" lon="-2.7053">
		<name>Carnoustie railway station</name>
		<desc>Carnoustie railway station</desc>
		<link href="https://en.wikipedia.org/wiki/Carnoustie_railway_station" >https://en.wikipedia.org/wiki/Carnoustie_railway_station</link>
	</wpt>
	<wpt lat="55.8549" lon="-4.1791">
		<name>Carntyne railway station</name>
		<desc>Carntyne railway station</desc>
		<link href="https://en.wikipedia.org/wiki/Carntyne_railway_station" >https://en.wikipedia.org/wiki/Carntyne_railway_station</link>
	</wpt>
	<wpt lat="57.2794" lon="-3.828">
		<name>Carrbridge railway station</name>
		<desc>Carrbridge railway station</desc>
		<link href="https://en.wikipedia.org/wiki/Carrbridge_railway_station" >https://en.wikipedia.org/wiki/Carrbridge_railway_station</link>
	</wpt>
	<wpt lat="55.6913" lon="-3.6692">
		<name>Carstairs railway station</name>
		<desc>Carstairs railway station</desc>
		<link href="https://en.wikipedia.org/wiki/Carstairs_railway_station" >https://en.wikipedia.org/wiki/Carstairs_railway_station</link>
	</wpt>
	<wpt lat="55.9422" lon="-4.7324">
		<name>Cartsdyke railway station</name>
		<desc>Cartsdyke railway station</desc>
		<link href="https://en.wikipedia.org/wiki/Cartsdyke_railway_station" >https://en.wikipedia.org/wiki/Cartsdyke_railway_station</link>
	</wpt>
	<wpt lat="55.81764" lon="-4.26056">
		<name>Cathcart railway station</name>
		<desc>Cathcart railway station</desc>
		<link href="https://en.wikipedia.org/wiki/Cathcart_railway_station" >https://en.wikipedia.org/wiki/Cathcart_railway_station</link>
	</wpt>
	<wpt lat="55.8647" lon="-4.27">
		<name>Charing Cross railway station (Scotland)</name>
		<desc>Charing Cross railway station (Scotland)</desc>
		<link href="https://en.wikipedia.org/wiki/Charing_Cross_railway_station_(Scotland)" >https://en.wikipedia.org/wiki/Charing_Cross_railway_station_(Scotland)</link>
	</wpt>
	<wpt lat="55.7651" lon="-4.0044">
		<name>Chatelherault railway station</name>
		<desc>Chatelherault railway station</desc>
		<link href="https://en.wikipedia.org/wiki/Chatelherault_railway_station" >https://en.wikipedia.org/wiki/Chatelherault_railway_station</link>
	</wpt>
	<wpt lat="55.7894" lon="-4.2755">
		<name>Clarkston railway station</name>
		<desc>Clarkston railway station</desc>
		<link href="https://en.wikipedia.org/wiki/Clarkston_railway_station" >https://en.wikipedia.org/wiki/Clarkston_railway_station</link>
	</wpt>
	<wpt lat="55.8044" lon="-3.9107">
		<name>Cleland railway station</name>
		<desc>Cleland railway station</desc>
		<link href="https://en.wikipedia.org/wiki/Cleland_railway_station" >https://en.wikipedia.org/wiki/Cleland_railway_station</link>
	</wpt>
	<wpt lat="55.9006" lon="-4.4042">
		<name>Clydebank railway station</name>
		<desc>Clydebank railway station</desc>
		<link href="https://en.wikipedia.org/wiki/Clydebank_railway_station" >https://en.wikipedia.org/wiki/Clydebank_railway_station</link>
	</wpt>
	<wpt lat="55.8629" lon="-4.0323">
		<name>Coatbridge Central railway station</name>
		<desc>Coatbridge Central railway station</desc>
		<link href="https://en.wikipedia.org/wiki/Coatbridge_Central_railway_station" >https://en.wikipedia.org/wiki/Coatbridge_Central_railway_station</link>
	</wpt>
	<wpt lat="55.8669" lon="-4.0281">
		<name>Coatbridge Sunnyside railway station</name>
		<desc>Coatbridge Sunnyside railway station</desc>
		<link href="https://en.wikipedia.org/wiki/Coatbridge_Sunnyside_railway_station" >https://en.wikipedia.org/wiki/Coatbridge_Sunnyside_railway_station</link>
	</wpt>
	<wpt lat="55.8644" lon="-4.005">
		<name>Coatdyke railway station</name>
		<desc>Coatdyke railway station</desc>
		<link href="https://en.wikipedia.org/wiki/Coatdyke_railway_station" >https://en.wikipedia.org/wiki/Coatdyke_railway_station</link>
	</wpt>
	<wpt lat="56.4524" lon="-5.3834">
		<name>Connel Ferry railway station</name>
		<desc>Connel Ferry railway station</desc>
		<link href="https://en.wikipedia.org/wiki/Connel_Ferry_railway_station" >https://en.wikipedia.org/wiki/Connel_Ferry_railway_station</link>
	</wpt>
	<wpt lat="57.5617" lon="-4.4404">
		<name>Conon Bridge railway station</name>
		<desc>Conon Bridge railway station</desc>
		<link href="https://en.wikipedia.org/wiki/Conon_Bridge_railway_station" >https://en.wikipedia.org/wiki/Conon_Bridge_railway_station</link>
	</wpt>
	<wpt lat="55.8373" lon="-4.3341">
		<name>Corkerhill railway station</name>
		<desc>Corkerhill railway station</desc>
		<link href="https://en.wikipedia.org/wiki/Corkerhill_railway_station" >https://en.wikipedia.org/wiki/Corkerhill_railway_station</link>
	</wpt>
	<wpt lat="56.8428" lon="-5.1221">
		<name>Corpach railway station</name>
		<desc>Corpach railway station</desc>
		<link href="https://en.wikipedia.org/wiki/Corpach_railway_station" >https://en.wikipedia.org/wiki/Corpach_railway_station</link>
	</wpt>
	<wpt lat="56.7602" lon="-4.6907">
		<name>Corrour railway station</name>
		<desc>Corrour railway station</desc>
		<link href="https://en.wikipedia.org/wiki/Corrour_railway_station" >https://en.wikipedia.org/wiki/Corrour_railway_station</link>
	</wpt>
	<wpt lat="56.112" lon="-3.3431">
		<name>Cowdenbeath railway station</name>
		<desc>Cowdenbeath railway station</desc>
		<link href="https://en.wikipedia.org/wiki/Cowdenbeath_railway_station" >https://en.wikipedia.org/wiki/Cowdenbeath_railway_station</link>
	</wpt>
	<wpt lat="55.9949" lon="-4.712">
		<name>Craigendoran railway station</name>
		<desc>Craigendoran railway station</desc>
		<link href="https://en.wikipedia.org/wiki/Craigendoran_railway_station" >https://en.wikipedia.org/wiki/Craigendoran_railway_station</link>
	</wpt>
	<wpt lat="56.3903" lon="-4.6185">
		<name>Crianlarich railway station</name>
		<desc>Crianlarich railway station</desc>
		<link href="https://en.wikipedia.org/wiki/Crianlarich_railway_station" >https://en.wikipedia.org/wiki/Crianlarich_railway_station</link>
	</wpt>
	<wpt lat="55.8182" lon="-4.2282">
		<name>Croftfoot railway station</name>
		<desc>Croftfoot railway station</desc>
		<link href="https://en.wikipedia.org/wiki/Croftfoot_railway_station" >https://en.wikipedia.org/wiki/Croftfoot_railway_station</link>
	</wpt>
	<wpt lat="55.8422" lon="-4.3653">
		<name>Crookston railway station</name>
		<desc>Crookston railway station</desc>
		<link href="https://en.wikipedia.org/wiki/Crookston_railway_station" >https://en.wikipedia.org/wiki/Crookston_railway_station</link>
	</wpt>
	<wpt lat="55.83325" lon="-4.25667">
		<name>Crosshill railway station</name>
		<desc>Crosshill railway station</desc>
		<link href="https://en.wikipedia.org/wiki/Crosshill_railway_station" >https://en.wikipedia.org/wiki/Crosshill_railway_station</link>
	</wpt>
	<wpt lat="55.8338" lon="-4.2847">
		<name>Crossmyloof railway station</name>
		<desc>Crossmyloof railway station</desc>
		<link href="https://en.wikipedia.org/wiki/Crossmyloof_railway_station" >https://en.wikipedia.org/wiki/Crossmyloof_railway_station</link>
	</wpt>
	<wpt lat="55.9555" lon="-4.0365">
		<name>Croy railway station</name>
		<desc>Croy railway station</desc>
		<link href="https://en.wikipedia.org/wiki/Croy_railway_station" >https://en.wikipedia.org/wiki/Croy_railway_station</link>
	</wpt>
	<wpt lat="57.9196" lon="-4.4045">
		<name>Culrain railway station</name>
		<desc>Culrain railway station</desc>
		<link href="https://en.wikipedia.org/wiki/Culrain_railway_station" >https://en.wikipedia.org/wiki/Culrain_railway_station</link>
	</wpt>
	<wpt lat="55.9418" lon="-3.9807">
		<name>Cumbernauld railway station</name>
		<desc>Cumbernauld railway station</desc>
		<link href="https://en.wikipedia.org/wiki/Cumbernauld_railway_station" >https://en.wikipedia.org/wiki/Cumbernauld_railway_station</link>
	</wpt>
	<wpt lat="56.3174" lon="-3.0087">
		<name>Cupar railway station</name>
		<desc>Cupar railway station</desc>
		<link href="https://en.wikipedia.org/wiki/Cupar_railway_station" >https://en.wikipedia.org/wiki/Cupar_railway_station</link>
	</wpt>
	<wpt lat="55.9006" lon="-3.3185">
		<name>Curriehill railway station</name>
		<desc>Curriehill railway station</desc>
		<link href="https://en.wikipedia.org/wiki/Curriehill_railway_station" >https://en.wikipedia.org/wiki/Curriehill_railway_station</link>
	</wpt>
	<wpt lat="56.0423" lon="-3.3672">
		<name>Dalgety Bay railway station</name>
		<desc>Dalgety Bay railway station</desc>
		<link href="https://en.wikipedia.org/wiki/Dalgety_Bay_railway_station" >https://en.wikipedia.org/wiki/Dalgety_Bay_railway_station</link>
	</wpt>
	<wpt lat="56.401" lon="-4.9829">
		<name>Dalmally railway station</name>
		<desc>Dalmally railway station</desc>
		<link href="https://en.wikipedia.org/wiki/Dalmally_railway_station" >https://en.wikipedia.org/wiki/Dalmally_railway_station</link>
	</wpt>
	<wpt lat="55.8424" lon="-4.2176">
		<name>Dalmarnock railway station</name>
		<desc>Dalmarnock railway station</desc>
		<link href="https://en.wikipedia.org/wiki/Dalmarnock_railway_station" >https://en.wikipedia.org/wiki/Dalmarnock_railway_station</link>
	</wpt>
	<wpt lat="55.9862" lon="-3.3815">
		<name>Dalmeny railway station</name>
		<desc>Dalmeny railway station</desc>
		<link href="https://en.wikipedia.org/wiki/Dalmeny_railway_station" >https://en.wikipedia.org/wiki/Dalmeny_railway_station</link>
	</wpt>
	<wpt lat="55.912" lon="-4.427">
		<name>Dalmuir railway station</name>
		<desc>Dalmuir railway station</desc>
		<link href="https://en.wikipedia.org/wiki/Dalmuir_railway_station" >https://en.wikipedia.org/wiki/Dalmuir_railway_station</link>
	</wpt>
	<wpt lat="55.9472" lon="-4.577">
		<name>Dalreoch railway station</name>
		<desc>Dalreoch railway station</desc>
		<link href="https://en.wikipedia.org/wiki/Dalreoch_railway_station" >https://en.wikipedia.org/wiki/Dalreoch_railway_station</link>
	</wpt>
	<wpt lat="55.706" lon="-4.7112">
		<name>Dalry railway station</name>
		<desc>Dalry railway station</desc>
		<link href="https://en.wikipedia.org/wiki/Dalry_railway_station" >https://en.wikipedia.org/wiki/Dalry_railway_station</link>
	</wpt>
	<wpt lat="56.9351" lon="-4.2463">
		<name>Dalwhinnie railway station</name>
		<desc>Dalwhinnie railway station</desc>
		<link href="https://en.wikipedia.org/wiki/Dalwhinnie_railway_station" >https://en.wikipedia.org/wiki/Dalwhinnie_railway_station</link>
	</wpt>
	<wpt lat="57.5942" lon="-4.4222">
		<name>Dingwall railway station</name>
		<desc>Dingwall railway station</desc>
		<link href="https://en.wikipedia.org/wiki/Dingwall_railway_station" >https://en.wikipedia.org/wiki/Dingwall_railway_station</link>
	</wpt>
	<wpt lat="56.0051" lon="-2.7854">
		<name>Drem railway station</name>
		<desc>Drem railway station</desc>
		<link href="https://en.wikipedia.org/wiki/Drem_railway_station" >https://en.wikipedia.org/wiki/Drem_railway_station</link>
	</wpt>
	<wpt lat="55.9047" lon="-4.363">
		<name>Drumchapel railway station</name>
		<desc>Drumchapel railway station</desc>
		<link href="https://en.wikipedia.org/wiki/Drumchapel_railway_station" >https://en.wikipedia.org/wiki/Drumchapel_railway_station</link>
	</wpt>
	<wpt lat="55.9412" lon="-4.7723">
		<name>Drumfrochar railway station</name>
		<desc>Drumfrochar railway station</desc>
		<link href="https://en.wikipedia.org/wiki/Drumfrochar_railway_station" >https://en.wikipedia.org/wiki/Drumfrochar_railway_station</link>
	</wpt>
	<wpt lat="55.867" lon="-3.9501">
		<name>Drumgelloch railway station</name>
		<desc>Drumgelloch railway station</desc>
		<link href="https://en.wikipedia.org/wiki/Drumgelloch_railway_station" >https://en.wikipedia.org/wiki/Drumgelloch_railway_station</link>
	</wpt>
	<wpt lat="55.9046" lon="-4.3854">
		<name>Drumry railway station</name>
		<desc>Drumry railway station</desc>
		<link href="https://en.wikipedia.org/wiki/Drumry_railway_station" >https://en.wikipedia.org/wiki/Drumry_railway_station</link>
	</wpt>
	<wpt lat="57.3199" lon="-5.6915">
		<name>Duirinish railway station</name>
		<desc>Duirinish railway station</desc>
		<link href="https://en.wikipedia.org/wiki/Duirinish_railway_station" >https://en.wikipedia.org/wiki/Duirinish_railway_station</link>
	</wpt>
	<wpt lat="55.859" lon="-4.2122">
		<name>Duke Street railway station</name>
		<desc>Duke Street railway station</desc>
		<link href="https://en.wikipedia.org/wiki/Duke_Street_railway_station" >https://en.wikipedia.org/wiki/Duke_Street_railway_station</link>
	</wpt>
	<wpt lat="55.9465" lon="-4.5673">
		<name>Dumbarton Central railway station</name>
		<desc>Dumbarton Central railway station</desc>
		<link href="https://en.wikipedia.org/wiki/Dumbarton_Central_railway_station" >https://en.wikipedia.org/wiki/Dumbarton_Central_railway_station</link>
	</wpt>
	<wpt lat="55.9426" lon="-4.5542">
		<name>Dumbarton East railway station</name>
		<desc>Dumbarton East railway station</desc>
		<link href="https://en.wikipedia.org/wiki/Dumbarton_East_railway_station" >https://en.wikipedia.org/wiki/Dumbarton_East_railway_station</link>
	</wpt>
	<wpt lat="55.845" lon="-4.3008">
		<name>Dumbreck railway station</name>
		<desc>Dumbreck railway station</desc>
		<link href="https://en.wikipedia.org/wiki/Dumbreck_railway_station" >https://en.wikipedia.org/wiki/Dumbreck_railway_station</link>
	</wpt>
	<wpt lat="55.0728" lon="-3.6045">
		<name>Dumfries railway station</name>
		<desc>Dumfries railway station</desc>
		<link href="https://en.wikipedia.org/wiki/Dumfries_railway_station" >https://en.wikipedia.org/wiki/Dumfries_railway_station</link>
	</wpt>
	<wpt lat="55.9985" lon="-2.5145">
		<name>Dunbar railway station</name>
		<desc>Dunbar railway station</desc>
		<link href="https://en.wikipedia.org/wiki/Dunbar_railway_station" >https://en.wikipedia.org/wiki/Dunbar_railway_station</link>
	</wpt>
	<wpt lat="56.1857" lon="-3.9657">
		<name>Dunblane railway station</name>
		<desc>Dunblane railway station</desc>
		<link href="https://en.wikipedia.org/wiki/Dunblane_railway_station" >https://en.wikipedia.org/wiki/Dunblane_railway_station</link>
	</wpt>
	<wpt lat="57.3369" lon="-5.6372">
		<name>Duncraig railway station</name>
		<desc>Duncraig railway station</desc>
		<link href="https://en.wikipedia.org/wiki/Duncraig_railway_station" >https://en.wikipedia.org/wiki/Duncraig_railway_station</link>
	</wpt>
	<wpt lat="56.4566" lon="-2.971">
		<name>Dundee railway station</name>
		<desc>Dundee railway station</desc>
		<link href="https://en.wikipedia.org/wiki/Dundee_railway_station" >https://en.wikipedia.org/wiki/Dundee_railway_station</link>
	</wpt>
	<wpt lat="56.0682" lon="-3.4521">
		<name>Dunfermline City railway station</name>
		<desc>Dunfermline City railway station</desc>
		<link href="https://en.wikipedia.org/wiki/Dunfermline_City_railway_station" >https://en.wikipedia.org/wiki/Dunfermline_City_railway_station</link>
	</wpt>
	<wpt lat="56.0803" lon="-3.4214">
		<name>Dunfermline Queen Margaret railway station</name>
		<desc>Dunfermline Queen Margaret railway station</desc>
		<link href="https://en.wikipedia.org/wiki/Dunfermline_Queen_Margaret_railway_station" >https://en.wikipedia.org/wiki/Dunfermline_Queen_Margaret_railway_station</link>
	</wpt>
	<wpt lat="56.5569" lon="-3.5783">
		<name>Dunkeld & Birnam railway station</name>
		<desc>Dunkeld & Birnam railway station</desc>
		<link href="https://en.wikipedia.org/wiki/Dunkeld_&_Birnam_railway_station" >https://en.wikipedia.org/wiki/Dunkeld_&_Birnam_railway_station</link>
	</wpt>
	<wpt lat="55.7119" lon="-4.5324">
		<name>Dunlop railway station</name>
		<desc>Dunlop railway station</desc>
		<link href="https://en.wikipedia.org/wiki/Dunlop_railway_station" >https://en.wikipedia.org/wiki/Dunlop_railway_station</link>
	</wpt>
	<wpt lat="57.9859" lon="-3.947">
		<name>Dunrobin Castle railway station</name>
		<desc>Dunrobin Castle railway station</desc>
		<link href="https://en.wikipedia.org/wiki/Dunrobin_Castle_railway_station" >https://en.wikipedia.org/wiki/Dunrobin_Castle_railway_station</link>
	</wpt>
	<wpt lat="57.2056" lon="-2.1926">
		<name>Dyce railway station</name>
		<desc>Dyce railway station</desc>
		<link href="https://en.wikipedia.org/wiki/Dyce_railway_station" >https://en.wikipedia.org/wiki/Dyce_railway_station</link>
	</wpt>
	<wpt lat="55.7659" lon="-4.181">
		<name>East Kilbride railway station</name>
		<desc>East Kilbride railway station</desc>
		<link href="https://en.wikipedia.org/wiki/East_Kilbride_railway_station" >https://en.wikipedia.org/wiki/East_Kilbride_railway_station</link>
	</wpt>
	<wpt lat="55.9856" lon="-2.6579">
		<name>East Linton railway station</name>
		<desc>East Linton railway station</desc>
		<link href="https://en.wikipedia.org/wiki/East_Linton_railway_station" >https://en.wikipedia.org/wiki/East_Linton_railway_station</link>
	</wpt>
	<wpt lat="55.8599" lon="-4.1066">
		<name>Easterhouse railway station</name>
		<desc>Easterhouse railway station</desc>
		<link href="https://en.wikipedia.org/wiki/Easterhouse_railway_station" >https://en.wikipedia.org/wiki/Easterhouse_railway_station</link>
	</wpt>
	<wpt lat="55.941" lon="-3.32">
		<name>Edinburgh Gateway station</name>
		<desc>Edinburgh Gateway station</desc>
		<link href="https://en.wikipedia.org/wiki/Edinburgh_Gateway_station" >https://en.wikipedia.org/wiki/Edinburgh_Gateway_station</link>
	</wpt>
	<wpt lat="55.9276" lon="-3.3077">
		<name>Edinburgh Park station</name>
		<desc>Edinburgh Park station</desc>
		<link href="https://en.wikipedia.org/wiki/Edinburgh_Park_station" >https://en.wikipedia.org/wiki/Edinburgh_Park_station</link>
	</wpt>
	<wpt lat="55.9521" lon="-3.1893">
		<name>Edinburgh Waverley railway station</name>
		<desc>Edinburgh Waverley railway station</desc>
		<link href="https://en.wikipedia.org/wiki/Edinburgh_Waverley_railway_station" >https://en.wikipedia.org/wiki/Edinburgh_Waverley_railway_station</link>
	</wpt>
	<wpt lat="57.6428" lon="-3.311">
		<name>Elgin railway station</name>
		<desc>Elgin railway station</desc>
		<link href="https://en.wikipedia.org/wiki/Elgin_railway_station" >https://en.wikipedia.org/wiki/Elgin_railway_station</link>
	</wpt>
	<wpt lat="55.8812887" lon="-3.0828437">
		<name>Eskbank railway station</name>
		<desc>Eskbank railway station</desc>
		<link href="https://en.wikipedia.org/wiki/Eskbank_railway_station" >https://en.wikipedia.org/wiki/Eskbank_railway_station</link>
	</wpt>
	<wpt lat="55.8611" lon="-4.2828">
		<name>Exhibition Centre railway station</name>
		<desc>Exhibition Centre railway station</desc>
		<link href="https://en.wikipedia.org/wiki/Exhibition_Centre_railway_station" >https://en.wikipedia.org/wiki/Exhibition_Centre_railway_station</link>
	</wpt>
	<wpt lat="55.7515" lon="-4.8532">
		<name>Fairlie railway station</name>
		<desc>Fairlie railway station</desc>
		<link href="https://en.wikipedia.org/wiki/Fairlie_railway_station" >https://en.wikipedia.org/wiki/Fairlie_railway_station</link>
	</wpt>
	<wpt lat="56.0024" lon="-3.7856">
		<name>Falkirk Grahamston railway station</name>
		<desc>Falkirk Grahamston railway station</desc>
		<link href="https://en.wikipedia.org/wiki/Falkirk_Grahamston_railway_station" >https://en.wikipedia.org/wiki/Falkirk_Grahamston_railway_station</link>
	</wpt>
	<wpt lat="55.9917" lon="-3.7924">
		<name>Falkirk High railway station</name>
		<desc>Falkirk High railway station</desc>
		<link href="https://en.wikipedia.org/wiki/Falkirk_High_railway_station" >https://en.wikipedia.org/wiki/Falkirk_High_railway_station</link>
	</wpt>
	<wpt lat="56.394" lon="-5.1128">
		<name>Falls of Cruachan railway station</name>
		<desc>Falls of Cruachan railway station</desc>
		<link href="https://en.wikipedia.org/wiki/Falls_of_Cruachan_railway_station" >https://en.wikipedia.org/wiki/Falls_of_Cruachan_railway_station</link>
	</wpt>
	<wpt lat="55.8224" lon="-3.7192">
		<name>Fauldhouse railway station</name>
		<desc>Fauldhouse railway station</desc>
		<link href="https://en.wikipedia.org/wiki/Fauldhouse_railway_station" >https://en.wikipedia.org/wiki/Fauldhouse_railway_station</link>
	</wpt>
	<wpt lat="57.778" lon="-3.994">
		<name>Fearn railway station</name>
		<desc>Fearn railway station</desc>
		<link href="https://en.wikipedia.org/wiki/Fearn_railway_station" >https://en.wikipedia.org/wiki/Fearn_railway_station</link>
	</wpt>
	<wpt lat="57.6097" lon="-3.6258">
		<name>Forres railway station</name>
		<desc>Forres railway station</desc>
		<link href="https://en.wikipedia.org/wiki/Forres_railway_station" >https://en.wikipedia.org/wiki/Forres_railway_station</link>
	</wpt>
	<wpt lat="58.3568" lon="-3.8971">
		<name>Forsinard railway station</name>
		<desc>Forsinard railway station</desc>
		<link href="https://en.wikipedia.org/wiki/Forsinard_railway_station" >https://en.wikipedia.org/wiki/Forsinard_railway_station</link>
	</wpt>
	<wpt lat="55.9589" lon="-4.7949">
		<name>Fort Matilda railway station</name>
		<desc>Fort Matilda railway station</desc>
		<link href="https://en.wikipedia.org/wiki/Fort_Matilda_railway_station" >https://en.wikipedia.org/wiki/Fort_Matilda_railway_station</link>
	</wpt>
	<wpt lat="56.8207" lon="-5.1047">
		<name>Fort William railway station</name>
		<desc>Fort William railway station</desc>
		<link href="https://en.wikipedia.org/wiki/Fort_William_railway_station" >https://en.wikipedia.org/wiki/Fort_William_railway_station</link>
	</wpt>
	<wpt lat="55.6178113" lon="-2.8054719">
		<name>Galashiels railway station</name>
		<desc>Galashiels railway station</desc>
		<link href="https://en.wikipedia.org/wiki/Galashiels_railway_station" >https://en.wikipedia.org/wiki/Galashiels_railway_station</link>
	</wpt>
	<wpt lat="56.0801" lon="-4.8254">
		<name>Garelochhead railway station</name>
		<desc>Garelochhead railway station</desc>
		<link href="https://en.wikipedia.org/wiki/Garelochhead_railway_station" >https://en.wikipedia.org/wiki/Garelochhead_railway_station</link>
	</wpt>
	<wpt lat="55.8553" lon="-4.1294">
		<name>Garrowhill railway station</name>
		<desc>Garrowhill railway station</desc>
		<link href="https://en.wikipedia.org/wiki/Garrowhill_railway_station" >https://en.wikipedia.org/wiki/Garrowhill_railway_station</link>
	</wpt>
	<wpt lat="55.8874" lon="-4.3638">
		<name>Garscadden railway station</name>
		<desc>Garscadden railway station</desc>
		<link href="https://en.wikipedia.org/wiki/Garscadden_railway_station" >https://en.wikipedia.org/wiki/Garscadden_railway_station</link>
	</wpt>
	<wpt lat="55.8855" lon="-4.0788">
		<name>Gartcosh railway station</name>
		<desc>Gartcosh railway station</desc>
		<link href="https://en.wikipedia.org/wiki/Gartcosh_railway_station" >https://en.wikipedia.org/wiki/Gartcosh_railway_station</link>
	</wpt>
	<wpt lat="57.613" lon="-4.6883">
		<name>Garve railway station</name>
		<desc>Garve railway station</desc>
		<link href="https://en.wikipedia.org/wiki/Garve_railway_station" >https://en.wikipedia.org/wiki/Garve_railway_station</link>
	</wpt>
	<wpt lat="58.5135" lon="-3.4518">
		<name>Georgemas Junction railway station</name>
		<desc>Georgemas Junction railway station</desc>
		<link href="https://en.wikipedia.org/wiki/Georgemas_Junction_railway_station" >https://en.wikipedia.org/wiki/Georgemas_Junction_railway_station</link>
	</wpt>
	<wpt lat="55.8039" lon="-4.293">
		<name>Giffnock railway station</name>
		<desc>Giffnock railway station</desc>
		<link href="https://en.wikipedia.org/wiki/Giffnock_railway_station" >https://en.wikipedia.org/wiki/Giffnock_railway_station</link>
	</wpt>
	<wpt lat="55.8973" lon="-4.2825">
		<name>Gilshochill railway station</name>
		<desc>Gilshochill railway station</desc>
		<link href="https://en.wikipedia.org/wiki/Gilshochill_railway_station" >https://en.wikipedia.org/wiki/Gilshochill_railway_station</link>
	</wpt>
	<wpt lat="55.2463" lon="-4.8482">
		<name>Girvan railway station</name>
		<desc>Girvan railway station</desc>
		<link href="https://en.wikipedia.org/wiki/Girvan_railway_station" >https://en.wikipedia.org/wiki/Girvan_railway_station</link>
	</wpt>
	<wpt lat="55.858" lon="-4.258">
		<name>Glasgow Central railway station</name>
		<desc>Glasgow Central railway station</desc>
		<link href="https://en.wikipedia.org/wiki/Glasgow_Central_railway_station" >https://en.wikipedia.org/wiki/Glasgow_Central_railway_station</link>
	</wpt>
	<wpt lat="55.8622" lon="-4.2512">
		<name>Glasgow Queen Street railway station</name>
		<desc>Glasgow Queen Street railway station</desc>
		<link href="https://en.wikipedia.org/wiki/Glasgow_Queen_Street_railway_station" >https://en.wikipedia.org/wiki/Glasgow_Queen_Street_railway_station</link>
	</wpt>
	<wpt lat="56.275" lon="-3.731">
		<name>Gleneagles railway station</name>
		<desc>Gleneagles railway station</desc>
		<link href="https://en.wikipedia.org/wiki/Gleneagles_railway_station" >https://en.wikipedia.org/wiki/Gleneagles_railway_station</link>
	</wpt>
	<wpt lat="56.8725" lon="-5.4495">
		<name>Glenfinnan railway station</name>
		<desc>Glenfinnan railway station</desc>
		<link href="https://en.wikipedia.org/wiki/Glenfinnan_railway_station" >https://en.wikipedia.org/wiki/Glenfinnan_railway_station</link>
	</wpt>
	<wpt lat="55.7389" lon="-4.6752">
		<name>Glengarnock railway station</name>
		<desc>Glengarnock railway station</desc>
		<link href="https://en.wikipedia.org/wiki/Glengarnock_railway_station" >https://en.wikipedia.org/wiki/Glengarnock_railway_station</link>
	</wpt>
	<wpt lat="56.1623" lon="-3.1426">
		<name>Glenrothes with Thornton railway station</name>
		<desc>Glenrothes with Thornton railway station</desc>
		<link href="https://en.wikipedia.org/wiki/Glenrothes_with_Thornton_railway_station" >https://en.wikipedia.org/wiki/Glenrothes_with_Thornton_railway_station</link>
	</wpt>
	<wpt lat="56.498" lon="-2.72">
		<name>Golf Street railway station</name>
		<desc>Golf Street railway station</desc>
		<link href="https://en.wikipedia.org/wiki/Golf_Street_railway_station" >https://en.wikipedia.org/wiki/Golf_Street_railway_station</link>
	</wpt>
	<wpt lat="57.9712" lon="-3.9874">
		<name>Golspie railway station</name>
		<desc>Golspie railway station</desc>
		<link href="https://en.wikipedia.org/wiki/Golspie_railway_station" >https://en.wikipedia.org/wiki/Golspie_railway_station</link>
	</wpt>
	<wpt lat="55.8402696" lon="-3.0467408">
		<name>Gorebridge railway station</name>
		<desc>Gorebridge railway station</desc>
		<link href="https://en.wikipedia.org/wiki/Gorebridge_railway_station" >https://en.wikipedia.org/wiki/Gorebridge_railway_station</link>
	</wpt>
	<wpt lat="55.9619" lon="-4.8158">
		<name>Gourock railway station</name>
		<desc>Gourock railway station</desc>
		<link href="https://en.wikipedia.org/wiki/Gourock_railway_station" >https://en.wikipedia.org/wiki/Gourock_railway_station</link>
	</wpt>
	<wpt lat="55.9349" lon="-3.9937">
		<name>Greenfaulds railway station</name>
		<desc>Greenfaulds railway station</desc>
		<link href="https://en.wikipedia.org/wiki/Greenfaulds_railway_station" >https://en.wikipedia.org/wiki/Greenfaulds_railway_station</link>
	</wpt>
	<wpt lat="55.945" lon="-4.7515">
		<name>Greenock Central railway station</name>
		<desc>Greenock Central railway station</desc>
		<link href="https://en.wikipedia.org/wiki/Greenock_Central_railway_station" >https://en.wikipedia.org/wiki/Greenock_Central_railway_station</link>
	</wpt>
	<wpt lat="55.9473" lon="-4.7679">
		<name>Greenock West railway station</name>
		<desc>Greenock West railway station</desc>
		<link href="https://en.wikipedia.org/wiki/Greenock_West_railway_station" >https://en.wikipedia.org/wiki/Greenock_West_railway_station</link>
	</wpt>
	<wpt lat="55.0007556" lon="-3.066305">
		<name>Gretna Green railway station</name>
		<desc>Gretna Green railway station</desc>
		<link href="https://en.wikipedia.org/wiki/Gretna_Green_railway_station" >https://en.wikipedia.org/wiki/Gretna_Green_railway_station</link>
	</wpt>
	<wpt lat="55.7619" lon="-4.2205">
		<name>Hairmyres railway station</name>
		<desc>Hairmyres railway station</desc>
		<link href="https://en.wikipedia.org/wiki/Hairmyres_railway_station" >https://en.wikipedia.org/wiki/Hairmyres_railway_station</link>
	</wpt>
	<wpt lat="55.7732" lon="-4.0388">
		<name>Hamilton Central railway station</name>
		<desc>Hamilton Central railway station</desc>
		<link href="https://en.wikipedia.org/wiki/Hamilton_Central_railway_station" >https://en.wikipedia.org/wiki/Hamilton_Central_railway_station</link>
	</wpt>
	<wpt lat="55.7794" lon="-4.0555">
		<name>Hamilton West railway station</name>
		<desc>Hamilton West railway station</desc>
		<link href="https://en.wikipedia.org/wiki/Hamilton_West_railway_station" >https://en.wikipedia.org/wiki/Hamilton_West_railway_station</link>
	</wpt>
	<wpt lat="55.8112" lon="-3.8389">
		<name>Hartwood railway station</name>
		<desc>Hartwood railway station</desc>
		<link href="https://en.wikipedia.org/wiki/Hartwood_railway_station" >https://en.wikipedia.org/wiki/Hartwood_railway_station</link>
	</wpt>
	<wpt lat="55.8421" lon="-4.3995">
		<name>Hawkhead railway station</name>
		<desc>Hawkhead railway station</desc>
		<link href="https://en.wikipedia.org/wiki/Hawkhead_railway_station" >https://en.wikipedia.org/wiki/Hawkhead_railway_station</link>
	</wpt>
	<wpt lat="55.9453" lon="-3.2187">
		<name>Haymarket railway station</name>
		<desc>Haymarket railway station</desc>
		<link href="https://en.wikipedia.org/wiki/Haymarket_railway_station" >https://en.wikipedia.org/wiki/Haymarket_railway_station</link>
	</wpt>
	<wpt lat="56.0038" lon="-4.7315">
		<name>Helensburgh Central railway station</name>
		<desc>Helensburgh Central railway station</desc>
		<link href="https://en.wikipedia.org/wiki/Helensburgh_Central_railway_station" >https://en.wikipedia.org/wiki/Helensburgh_Central_railway_station</link>
	</wpt>
	<wpt lat="56.0124" lon="-4.7304">
		<name>Helensburgh Upper railway station</name>
		<desc>Helensburgh Upper railway station</desc>
		<link href="https://en.wikipedia.org/wiki/Helensburgh_Upper_railway_station" >https://en.wikipedia.org/wiki/Helensburgh_Upper_railway_station</link>
	</wpt>
	<wpt lat="58.1177" lon="-3.659">
		<name>Helmsdale railway station</name>
		<desc>Helmsdale railway station</desc>
		<link href="https://en.wikipedia.org/wiki/Helmsdale_railway_station" >https://en.wikipedia.org/wiki/Helmsdale_railway_station</link>
	</wpt>
	<wpt lat="55.8594" lon="-4.24">
		<name>High Street (Glasgow) railway station</name>
		<desc>High Street (Glasgow) railway station</desc>
		<link href="https://en.wikipedia.org/wiki/High_Street_(Glasgow)_railway_station" >https://en.wikipedia.org/wiki/High_Street_(Glasgow)_railway_station</link>
	</wpt>
	<wpt lat="55.9203" lon="-4.3199">
		<name>Hillfoot railway station</name>
		<desc>Hillfoot railway station</desc>
		<link href="https://en.wikipedia.org/wiki/Hillfoot_railway_station" >https://en.wikipedia.org/wiki/Hillfoot_railway_station</link>
	</wpt>
	<wpt lat="55.8542" lon="-4.3551">
		<name>Hillington East railway station</name>
		<desc>Hillington East railway station</desc>
		<link href="https://en.wikipedia.org/wiki/Hillington_East_railway_station" >https://en.wikipedia.org/wiki/Hillington_East_railway_station</link>
	</wpt>
	<wpt lat="55.8559" lon="-4.3708">
		<name>Hillington West railway station</name>
		<desc>Hillington West railway station</desc>
		<link href="https://en.wikipedia.org/wiki/Hillington_West_railway_station" >https://en.wikipedia.org/wiki/Hillington_West_railway_station</link>
	</wpt>
	<wpt lat="55.8126" lon="-3.9736">
		<name>Holytown railway station</name>
		<desc>Holytown railway station</desc>
		<link href="https://en.wikipedia.org/wiki/Holytown_railway_station" >https://en.wikipedia.org/wiki/Holytown_railway_station</link>
	</wpt>
	<wpt lat="55.8106" lon="-4.5625">
		<name>Howwood railway station</name>
		<desc>Howwood railway station</desc>
		<link href="https://en.wikipedia.org/wiki/Howwood_railway_station" >https://en.wikipedia.org/wiki/Howwood_railway_station</link>
	</wpt>
	<wpt lat="57.4445" lon="-2.7758">
		<name>Huntly railway station</name>
		<desc>Huntly railway station</desc>
		<link href="https://en.wikipedia.org/wiki/Huntly_railway_station" >https://en.wikipedia.org/wiki/Huntly_railway_station</link>
	</wpt>
	<wpt lat="55.8796" lon="-4.3145">
		<name>Hyndland railway station</name>
		<desc>Hyndland railway station</desc>
		<link href="https://en.wikipedia.org/wiki/Hyndland_railway_station" >https://en.wikipedia.org/wiki/Hyndland_railway_station</link>
	</wpt>
	<wpt lat="57.3374" lon="-2.6168">
		<name>Insch railway station</name>
		<desc>Insch railway station</desc>
		<link href="https://en.wikipedia.org/wiki/Insch_railway_station" >https://en.wikipedia.org/wiki/Insch_railway_station</link>
	</wpt>
	<wpt lat="57.6891" lon="-4.1745">
		<name>Invergordon railway station</name>
		<desc>Invergordon railway station</desc>
		<link href="https://en.wikipedia.org/wiki/Invergordon_railway_station" >https://en.wikipedia.org/wiki/Invergordon_railway_station</link>
	</wpt>
	<wpt lat="56.4563" lon="-3.0578">
		<name>Invergowrie railway station</name>
		<desc>Invergowrie railway station</desc>
		<link href="https://en.wikipedia.org/wiki/Invergowrie_railway_station" >https://en.wikipedia.org/wiki/Invergowrie_railway_station</link>
	</wpt>
	<wpt lat="56.0351" lon="-3.3954">
		<name>Inverkeithing railway station</name>
		<desc>Inverkeithing railway station</desc>
		<link href="https://en.wikipedia.org/wiki/Inverkeithing_railway_station" >https://en.wikipedia.org/wiki/Inverkeithing_railway_station</link>
	</wpt>
	<wpt lat="55.906" lon="-4.8724">
		<name>Inverkip railway station</name>
		<desc>Inverkip railway station</desc>
		<link href="https://en.wikipedia.org/wiki/Inverkip_railway_station" >https://en.wikipedia.org/wiki/Inverkip_railway_station</link>
	</wpt>
	<wpt lat="57.5335" lon="-4.0552">
		<name>Inverness Airport railway station</name>
		<desc>Inverness Airport railway station</desc>
		<link href="https://en.wikipedia.org/wiki/Inverness_Airport_railway_station" >https://en.wikipedia.org/wiki/Inverness_Airport_railway_station</link>
	</wpt>
	<wpt lat="57.48" lon="-4.223">
		<name>Inverness railway station</name>
		<desc>Inverness railway station</desc>
		<link href="https://en.wikipedia.org/wiki/Inverness_railway_station" >https://en.wikipedia.org/wiki/Inverness_railway_station</link>
	</wpt>
	<wpt lat="57.9249" lon="-4.3995">
		<name>Invershin railway station</name>
		<desc>Invershin railway station</desc>
		<link href="https://en.wikipedia.org/wiki/Invershin_railway_station" >https://en.wikipedia.org/wiki/Invershin_railway_station</link>
	</wpt>
	<wpt lat="57.2867" lon="-2.3737">
		<name>Inverurie railway station</name>
		<desc>Inverurie railway station</desc>
		<link href="https://en.wikipedia.org/wiki/Inverurie_railway_station" >https://en.wikipedia.org/wiki/Inverurie_railway_station</link>
	</wpt>
	<wpt lat="55.6116" lon="-4.675">
		<name>Irvine railway station</name>
		<desc>Irvine railway station</desc>
		<link href="https://en.wikipedia.org/wiki/Irvine_railway_station" >https://en.wikipedia.org/wiki/Irvine_railway_station</link>
	</wpt>
	<wpt lat="55.8343" lon="-4.5032">
		<name>Johnstone railway station</name>
		<desc>Johnstone railway station</desc>
		<link href="https://en.wikipedia.org/wiki/Johnstone_railway_station" >https://en.wikipedia.org/wiki/Johnstone_railway_station</link>
	</wpt>
	<wpt lat="55.8826" lon="-4.3246">
		<name>Jordanhill railway station</name>
		<desc>Jordanhill railway station</desc>
		<link href="https://en.wikipedia.org/wiki/Jordanhill_railway_station" >https://en.wikipedia.org/wiki/Jordanhill_railway_station</link>
	</wpt>
	<wpt lat="57.5514" lon="-2.9542">
		<name>Keith railway station</name>
		<desc>Keith railway station</desc>
		<link href="https://en.wikipedia.org/wiki/Keith_railway_station" >https://en.wikipedia.org/wiki/Keith_railway_station</link>
	</wpt>
	<wpt lat="55.8934" lon="-4.3105">
		<name>Kelvindale railway station</name>
		<desc>Kelvindale railway station</desc>
		<link href="https://en.wikipedia.org/wiki/Kelvindale_railway_station" >https://en.wikipedia.org/wiki/Kelvindale_railway_station</link>
	</wpt>
	<wpt lat="55.8134" lon="-4.3247">
		<name>Kennishead railway station</name>
		<desc>Kennishead railway station</desc>
		<link href="https://en.wikipedia.org/wiki/Kennishead_railway_station" >https://en.wikipedia.org/wiki/Kennishead_railway_station</link>
	</wpt>
	<wpt lat="58.1708" lon="-3.8691">
		<name>Kildonan railway station</name>
		<desc>Kildonan railway station</desc>
		<link href="https://en.wikipedia.org/wiki/Kildonan_railway_station" >https://en.wikipedia.org/wiki/Kildonan_railway_station</link>
	</wpt>
	<wpt lat="55.6124" lon="-4.4992">
		<name>Kilmarnock railway station</name>
		<desc>Kilmarnock railway station</desc>
		<link href="https://en.wikipedia.org/wiki/Kilmarnock_railway_station" >https://en.wikipedia.org/wiki/Kilmarnock_railway_station</link>
	</wpt>
	<wpt lat="55.6368" lon="-4.5306">
		<name>Kilmaurs railway station</name>
		<desc>Kilmaurs railway station</desc>
		<link href="https://en.wikipedia.org/wiki/Kilmaurs_railway_station" >https://en.wikipedia.org/wiki/Kilmaurs_railway_station</link>
	</wpt>
	<wpt lat="55.9239" lon="-4.4525">
		<name>Kilpatrick railway station</name>
		<desc>Kilpatrick railway station</desc>
		<link href="https://en.wikipedia.org/wiki/Kilpatrick_railway_station" >https://en.wikipedia.org/wiki/Kilpatrick_railway_station</link>
	</wpt>
	<wpt lat="55.6561" lon="-4.7096">
		<name>Kilwinning railway station</name>
		<desc>Kilwinning railway station</desc>
		<link href="https://en.wikipedia.org/wiki/Kilwinning_railway_station" >https://en.wikipedia.org/wiki/Kilwinning_railway_station</link>
	</wpt>
	<wpt lat="58.2585" lon="-3.9412">
		<name>Kinbrace railway station</name>
		<desc>Kinbrace railway station</desc>
		<link href="https://en.wikipedia.org/wiki/Kinbrace_railway_station" >https://en.wikipedia.org/wiki/Kinbrace_railway_station</link>
	</wpt>
	<wpt lat="55.81958" lon="-4.24653">
		<name>King's Park railway station</name>
		<desc>King's Park railway station</desc>
		<link href="https://en.wikipedia.org/wiki/King's_Park_railway_station" >https://en.wikipedia.org/wiki/King's_Park_railway_station</link>
	</wpt>
	<wpt lat="56.0692" lon="-3.1743">
		<name>Kinghorn railway station</name>
		<desc>Kinghorn railway station</desc>
		<link href="https://en.wikipedia.org/wiki/Kinghorn_railway_station" >https://en.wikipedia.org/wiki/Kinghorn_railway_station</link>
	</wpt>
	<wpt lat="55.919" lon="-3.2642">
		<name>Kingsknowe railway station</name>
		<desc>Kingsknowe railway station</desc>
		<link href="https://en.wikipedia.org/wiki/Kingsknowe_railway_station" >https://en.wikipedia.org/wiki/Kingsknowe_railway_station</link>
	</wpt>
	<wpt lat="57.0776" lon="-4.0543">
		<name>Kingussie railway station</name>
		<desc>Kingussie railway station</desc>
		<link href="https://en.wikipedia.org/wiki/Kingussie_railway_station" >https://en.wikipedia.org/wiki/Kingussie_railway_station</link>
	</wpt>
	<wpt lat="57.24361111" lon="-2.35027778">
		<name>Kintore railway station</name>
		<desc>Kintore railway station</desc>
		<link href="https://en.wikipedia.org/wiki/Kintore_railway_station" >https://en.wikipedia.org/wiki/Kintore_railway_station</link>
	</wpt>
	<wpt lat="56.1119" lon="-3.1671">
		<name>Kirkcaldy railway station</name>
		<desc>Kirkcaldy railway station</desc>
		<link href="https://en.wikipedia.org/wiki/Kirkcaldy_railway_station" >https://en.wikipedia.org/wiki/Kirkcaldy_railway_station</link>
	</wpt>
	<wpt lat="55.3875" lon="-3.9988">
		<name>Kirkconnel railway station</name>
		<desc>Kirkconnel railway station</desc>
		<link href="https://en.wikipedia.org/wiki/Kirkconnel_railway_station" >https://en.wikipedia.org/wiki/Kirkconnel_railway_station</link>
	</wpt>
	<wpt lat="55.8141" lon="-4.1678">
		<name>Kirkhill railway station</name>
		<desc>Kirkhill railway station</desc>
		<link href="https://en.wikipedia.org/wiki/Kirkhill_railway_station" >https://en.wikipedia.org/wiki/Kirkhill_railway_station</link>
	</wpt>
	<wpt lat="55.889" lon="-3.4332">
		<name>Kirknewton railway station</name>
		<desc>Kirknewton railway station</desc>
		<link href="https://en.wikipedia.org/wiki/Kirknewton_railway_station" >https://en.wikipedia.org/wiki/Kirknewton_railway_station</link>
	</wpt>
	<wpt lat="55.8542" lon="-4.0481">
		<name>Kirkwood railway station</name>
		<desc>Kirkwood railway station</desc>
		<link href="https://en.wikipedia.org/wiki/Kirkwood_railway_station" >https://en.wikipedia.org/wiki/Kirkwood_railway_station</link>
	</wpt>
	<wpt lat="57.28" lon="-5.7138">
		<name>Kyle of Lochalsh railway station</name>
		<desc>Kyle of Lochalsh railway station</desc>
		<link href="https://en.wikipedia.org/wiki/Kyle_of_Lochalsh_railway_station" >https://en.wikipedia.org/wiki/Kyle_of_Lochalsh_railway_station</link>
	</wpt>
	<wpt lat="56.2739" lon="-3.1215">
		<name>Ladybank railway station</name>
		<desc>Ladybank railway station</desc>
		<link href="https://en.wikipedia.org/wiki/Ladybank_railway_station" >https://en.wikipedia.org/wiki/Ladybank_railway_station</link>
	</wpt>
	<wpt lat="58.0019" lon="-4.3998">
		<name>Lairg railway station</name>
		<desc>Lairg railway station</desc>
		<link href="https://en.wikipedia.org/wiki/Lairg_railway_station" >https://en.wikipedia.org/wiki/Lairg_railway_station</link>
	</wpt>
	<wpt lat="55.6735" lon="-3.7723">
		<name>Lanark railway station</name>
		<desc>Lanark railway station</desc>
		<link href="https://en.wikipedia.org/wiki/Lanark_railway_station" >https://en.wikipedia.org/wiki/Lanark_railway_station</link>
	</wpt>
	<wpt lat="55.9247" lon="-4.5864">
		<name>Langbank railway station</name>
		<desc>Langbank railway station</desc>
		<link href="https://en.wikipedia.org/wiki/Langbank_railway_station" >https://en.wikipedia.org/wiki/Langbank_railway_station</link>
	</wpt>
	<wpt lat="55.8208" lon="-4.2759">
		<name>Langside railway station</name>
		<desc>Langside railway station</desc>
		<link href="https://en.wikipedia.org/wiki/Langside_railway_station" >https://en.wikipedia.org/wiki/Langside_railway_station</link>
	</wpt>
	<wpt lat="56.0222" lon="-3.8298">
		<name>Larbert railway station</name>
		<desc>Larbert railway station</desc>
		<link href="https://en.wikipedia.org/wiki/Larbert_railway_station" >https://en.wikipedia.org/wiki/Larbert_railway_station</link>
	</wpt>
	<wpt lat="55.7928" lon="-4.8673">
		<name>Largs railway station</name>
		<desc>Largs railway station</desc>
		<link href="https://en.wikipedia.org/wiki/Largs_railway_station" >https://en.wikipedia.org/wiki/Largs_railway_station</link>
	</wpt>
	<wpt lat="55.739" lon="-3.9753">
		<name>Larkhall railway station</name>
		<desc>Larkhall railway station</desc>
		<link href="https://en.wikipedia.org/wiki/Larkhall_railway_station" >https://en.wikipedia.org/wiki/Larkhall_railway_station</link>
	</wpt>
	<wpt lat="56.8368" lon="-2.4653">
		<name>Laurencekirk railway station</name>
		<desc>Laurencekirk railway station</desc>
		<link href="https://en.wikipedia.org/wiki/Laurencekirk_railway_station" >https://en.wikipedia.org/wiki/Laurencekirk_railway_station</link>
	</wpt>
	<wpt lat="55.9213" lon="-4.1542">
		<name>Lenzie railway station</name>
		<desc>Lenzie railway station</desc>
		<link href="https://en.wikipedia.org/wiki/Lenzie_railway_station" >https://en.wikipedia.org/wiki/Lenzie_railway_station</link>
	</wpt>
	<wpt lat="56.3751" lon="-2.8936">
		<name>Leuchars railway station</name>
		<desc>Leuchars railway station</desc>
		<link href="https://en.wikipedia.org/wiki/Leuchars_railway_station" >https://en.wikipedia.org/wiki/Leuchars_railway_station</link>
	</wpt>
	<wpt lat="56.1923" lon="-3.002">
		<name>Leven railway station (Fife)</name>
		<desc>Leven railway station (Fife)</desc>
		<link href="https://en.wikipedia.org/wiki/Leven_railway_station_(Fife)" >https://en.wikipedia.org/wiki/Leven_railway_station_(Fife)</link>
	</wpt>
	<wpt lat="55.9764" lon="-3.5957">
		<name>Linlithgow railway station</name>
		<desc>Linlithgow railway station</desc>
		<link href="https://en.wikipedia.org/wiki/Linlithgow_railway_station" >https://en.wikipedia.org/wiki/Linlithgow_railway_station</link>
	</wpt>
	<wpt lat="55.9016" lon="-3.5435">
		<name>Livingston North railway station</name>
		<desc>Livingston North railway station</desc>
		<link href="https://en.wikipedia.org/wiki/Livingston_North_railway_station" >https://en.wikipedia.org/wiki/Livingston_North_railway_station</link>
	</wpt>
	<wpt lat="55.8716" lon="-3.5015">
		<name>Livingston South railway station</name>
		<desc>Livingston South railway station</desc>
		<link href="https://en.wikipedia.org/wiki/Livingston_South_railway_station" >https://en.wikipedia.org/wiki/Livingston_South_railway_station</link>
	</wpt>
	<wpt lat="56.4021" lon="-5.0412">
		<name>Loch Awe railway station</name>
		<desc>Loch Awe railway station</desc>
		<link href="https://en.wikipedia.org/wiki/Loch_Awe_railway_station" >https://en.wikipedia.org/wiki/Loch_Awe_railway_station</link>
	</wpt>
	<wpt lat="56.8554" lon="-5.1929">
		<name>Loch Eil Outward Bound railway station</name>
		<desc>Loch Eil Outward Bound railway station</desc>
		<link href="https://en.wikipedia.org/wiki/Loch_Eil_Outward_Bound_railway_station" >https://en.wikipedia.org/wiki/Loch_Eil_Outward_Bound_railway_station</link>
	</wpt>
	<wpt lat="56.8814" lon="-5.6634">
		<name>Lochailort railway station</name>
		<desc>Lochailort railway station</desc>
		<link href="https://en.wikipedia.org/wiki/Lochailort_railway_station" >https://en.wikipedia.org/wiki/Lochailort_railway_station</link>
	</wpt>
	<wpt lat="56.856" lon="-5.2903">
		<name>Locheilside railway station</name>
		<desc>Locheilside railway station</desc>
		<link href="https://en.wikipedia.org/wiki/Locheilside_railway_station" >https://en.wikipedia.org/wiki/Locheilside_railway_station</link>
	</wpt>
	<wpt lat="56.1349" lon="-3.3135">
		<name>Lochgelly railway station</name>
		<desc>Lochgelly railway station</desc>
		<link href="https://en.wikipedia.org/wiki/Lochgelly_railway_station" >https://en.wikipedia.org/wiki/Lochgelly_railway_station</link>
	</wpt>
	<wpt lat="57.6218" lon="-4.8091">
		<name>Lochluichart railway station</name>
		<desc>Lochluichart railway station</desc>
		<link href="https://en.wikipedia.org/wiki/Lochluichart_railway_station" >https://en.wikipedia.org/wiki/Lochluichart_railway_station</link>
	</wpt>
	<wpt lat="55.7867" lon="-4.6164">
		<name>Lochwinnoch railway station</name>
		<desc>Lochwinnoch railway station</desc>
		<link href="https://en.wikipedia.org/wiki/Lochwinnoch_railway_station" >https://en.wikipedia.org/wiki/Lochwinnoch_railway_station</link>
	</wpt>
	<wpt lat="55.9763" lon="-2.8884">
		<name>Longniddry railway station</name>
		<desc>Longniddry railway station</desc>
		<link href="https://en.wikipedia.org/wiki/Longniddry_railway_station" >https://en.wikipedia.org/wiki/Longniddry_railway_station</link>
	</wpt>
	<wpt lat="57.0056" lon="-5.8302">
		<name>Mallaig railway station</name>
		<desc>Mallaig railway station</desc>
		<link href="https://en.wikipedia.org/wiki/Mallaig_railway_station" >https://en.wikipedia.org/wiki/Mallaig_railway_station</link>
	</wpt>
	<wpt lat="56.2005" lon="-3.1308">
		<name>Markinch railway station</name>
		<desc>Markinch railway station</desc>
		<link href="https://en.wikipedia.org/wiki/Markinch_railway_station" >https://en.wikipedia.org/wiki/Markinch_railway_station</link>
	</wpt>
	<wpt lat="55.8974" lon="-4.3016">
		<name>Maryhill railway station</name>
		<desc>Maryhill railway station</desc>
		<link href="https://en.wikipedia.org/wiki/Maryhill_railway_station" >https://en.wikipedia.org/wiki/Maryhill_railway_station</link>
	</wpt>
	<wpt lat="55.8376" lon="-4.2888">
		<name>Maxwell Park railway station</name>
		<desc>Maxwell Park railway station</desc>
		<link href="https://en.wikipedia.org/wiki/Maxwell_Park_railway_station" >https://en.wikipedia.org/wiki/Maxwell_Park_railway_station</link>
	</wpt>
	<wpt lat="55.3546" lon="-4.6855">
		<name>Maybole railway station</name>
		<desc>Maybole railway station</desc>
		<link href="https://en.wikipedia.org/wiki/Maybole_railway_station" >https://en.wikipedia.org/wiki/Maybole_railway_station</link>
	</wpt>
	<wpt lat="55.7489" lon="-3.9775">
		<name>Merryton railway station</name>
		<desc>Merryton railway station</desc>
		<link href="https://en.wikipedia.org/wiki/Merryton_railway_station" >https://en.wikipedia.org/wiki/Merryton_railway_station</link>
	</wpt>
	<wpt lat="55.8247" lon="-4.5344">
		<name>Milliken Park railway station</name>
		<desc>Milliken Park railway station</desc>
		<link href="https://en.wikipedia.org/wiki/Milliken_Park_railway_station" >https://en.wikipedia.org/wiki/Milliken_Park_railway_station</link>
	</wpt>
	<wpt lat="55.9412" lon="-4.3145">
		<name>Milngavie railway station</name>
		<desc>Milngavie railway station</desc>
		<link href="https://en.wikipedia.org/wiki/Milngavie_railway_station" >https://en.wikipedia.org/wiki/Milngavie_railway_station</link>
	</wpt>
	<wpt lat="56.4799" lon="-2.8175">
		<name>Monifieth railway station</name>
		<desc>Monifieth railway station</desc>
		<link href="https://en.wikipedia.org/wiki/Monifieth_railway_station" >https://en.wikipedia.org/wiki/Monifieth_railway_station</link>
	</wpt>
	<wpt lat="56.7129" lon="-2.4722">
		<name>Montrose railway station</name>
		<desc>Montrose railway station</desc>
		<link href="https://en.wikipedia.org/wiki/Montrose_railway_station" >https://en.wikipedia.org/wiki/Montrose_railway_station</link>
	</wpt>
	<wpt lat="56.969" lon="-5.8222">
		<name>Morar railway station</name>
		<desc>Morar railway station</desc>
		<link href="https://en.wikipedia.org/wiki/Morar_railway_station" >https://en.wikipedia.org/wiki/Morar_railway_station</link>
	</wpt>
	<wpt lat="55.8406" lon="-4.3471">
		<name>Mosspark railway station</name>
		<desc>Mosspark railway station</desc>
		<link href="https://en.wikipedia.org/wiki/Mosspark_railway_station" >https://en.wikipedia.org/wiki/Mosspark_railway_station</link>
	</wpt>
	<wpt lat="55.79157" lon="-3.994208">
		<name>Motherwell railway station</name>
		<desc>Motherwell railway station</desc>
		<link href="https://en.wikipedia.org/wiki/Motherwell_railway_station" >https://en.wikipedia.org/wiki/Motherwell_railway_station</link>
	</wpt>
	<wpt lat="55.8268" lon="-4.2611">
		<name>Mount Florida railway station</name>
		<desc>Mount Florida railway station</desc>
		<link href="https://en.wikipedia.org/wiki/Mount_Florida_railway_station" >https://en.wikipedia.org/wiki/Mount_Florida_railway_station</link>
	</wpt>
	<wpt lat="55.8405" lon="-4.1326">
		<name>Mount Vernon railway station</name>
		<desc>Mount Vernon railway station</desc>
		<link href="https://en.wikipedia.org/wiki/Mount_Vernon_railway_station" >https://en.wikipedia.org/wiki/Mount_Vernon_railway_station</link>
	</wpt>
	<wpt lat="57.5175" lon="-4.4602">
		<name>Muir of Ord railway station</name>
		<desc>Muir of Ord railway station</desc>
		<link href="https://en.wikipedia.org/wiki/Muir_of_Ord_railway_station" >https://en.wikipedia.org/wiki/Muir_of_Ord_railway_station</link>
	</wpt>
	<wpt lat="55.8101" lon="-4.2739">
		<name>Muirend railway station</name>
		<desc>Muirend railway station</desc>
		<link href="https://en.wikipedia.org/wiki/Muirend_railway_station" >https://en.wikipedia.org/wiki/Muirend_railway_station</link>
	</wpt>
	<wpt lat="55.9335" lon="-3.0725">
		<name>Musselburgh railway station</name>
		<desc>Musselburgh railway station</desc>
		<link href="https://en.wikipedia.org/wiki/Musselburgh_railway_station" >https://en.wikipedia.org/wiki/Musselburgh_railway_station</link>
	</wpt>
	<wpt lat="57.5803" lon="-3.8716">
		<name>Nairn railway station</name>
		<desc>Nairn railway station</desc>
		<link href="https://en.wikipedia.org/wiki/Nairn_railway_station" >https://en.wikipedia.org/wiki/Nairn_railway_station</link>
	</wpt>
	<wpt lat="55.7829" lon="-4.4269">
		<name>Neilston railway station</name>
		<desc>Neilston railway station</desc>
		<link href="https://en.wikipedia.org/wiki/Neilston_railway_station" >https://en.wikipedia.org/wiki/Neilston_railway_station</link>
	</wpt>
	<wpt lat="55.4022" lon="-4.1832">
		<name>New Cumnock railway station</name>
		<desc>New Cumnock railway station</desc>
		<link href="https://en.wikipedia.org/wiki/New_Cumnock_railway_station" >https://en.wikipedia.org/wiki/New_Cumnock_railway_station</link>
	</wpt>
	<wpt lat="55.9329756" lon="-3.0906951">
		<name>Newcraighall railway station</name>
		<desc>Newcraighall railway station</desc>
		<link href="https://en.wikipedia.org/wiki/Newcraighall_railway_station" >https://en.wikipedia.org/wiki/Newcraighall_railway_station</link>
	</wpt>
	<wpt lat="55.8188" lon="-4.1337">
		<name>Newton railway station</name>
		<desc>Newton railway station</desc>
		<link href="https://en.wikipedia.org/wiki/Newton_railway_station" >https://en.wikipedia.org/wiki/Newton_railway_station</link>
	</wpt>
	<wpt lat="55.4743" lon="-4.6262">
		<name>Newton-on-Ayr railway station</name>
		<desc>Newton-on-Ayr railway station</desc>
		<link href="https://en.wikipedia.org/wiki/Newton-on-Ayr_railway_station" >https://en.wikipedia.org/wiki/Newton-on-Ayr_railway_station</link>
	</wpt>
	<wpt lat="55.8648238" lon="-3.068938">
		<name>Newtongrange railway station</name>
		<desc>Newtongrange railway station</desc>
		<link href="https://en.wikipedia.org/wiki/Newtongrange_railway_station" >https://en.wikipedia.org/wiki/Newtongrange_railway_station</link>
	</wpt>
	<wpt lat="57.0595" lon="-4.1184">
		<name>Newtonmore railway station</name>
		<desc>Newtonmore railway station</desc>
		<link href="https://en.wikipedia.org/wiki/Newtonmore_railway_station" >https://en.wikipedia.org/wiki/Newtonmore_railway_station</link>
	</wpt>
	<wpt lat="55.8119" lon="-4.3603">
		<name>Nitshill railway station</name>
		<desc>Nitshill railway station</desc>
		<link href="https://en.wikipedia.org/wiki/Nitshill_railway_station" >https://en.wikipedia.org/wiki/Nitshill_railway_station</link>
	</wpt>
	<wpt lat="56.0566" lon="-2.731">
		<name>North Berwick railway station</name>
		<desc>North Berwick railway station</desc>
		<link href="https://en.wikipedia.org/wiki/North_Berwick_railway_station" >https://en.wikipedia.org/wiki/North_Berwick_railway_station</link>
	</wpt>
	<wpt lat="56.0124" lon="-3.3947">
		<name>North Queensferry railway station</name>
		<desc>North Queensferry railway station</desc>
		<link href="https://en.wikipedia.org/wiki/North_Queensferry_railway_station" >https://en.wikipedia.org/wiki/North_Queensferry_railway_station</link>
	</wpt>
	<wpt lat="56.4121" lon="-5.4749">
		<name>Oban railway station</name>
		<desc>Oban railway station</desc>
		<link href="https://en.wikipedia.org/wiki/Oban_railway_station" >https://en.wikipedia.org/wiki/Oban_railway_station</link>
	</wpt>
	<wpt lat="55.8402" lon="-4.4227">
		<name>Paisley Canal railway station</name>
		<desc>Paisley Canal railway station</desc>
		<link href="https://en.wikipedia.org/wiki/Paisley_Canal_railway_station" >https://en.wikipedia.org/wiki/Paisley_Canal_railway_station</link>
	</wpt>
	<wpt lat="55.8474" lon="-4.4242">
		<name>Paisley Gilmour Street railway station</name>
		<desc>Paisley Gilmour Street railway station</desc>
		<link href="https://en.wikipedia.org/wiki/Paisley_Gilmour_Street_railway_station" >https://en.wikipedia.org/wiki/Paisley_Gilmour_Street_railway_station</link>
	</wpt>
	<wpt lat="55.8519" lon="-4.4419">
		<name>Paisley St James railway station</name>
		<desc>Paisley St James railway station</desc>
		<link href="https://en.wikipedia.org/wiki/Paisley_St_James_railway_station" >https://en.wikipedia.org/wiki/Paisley_St_James_railway_station</link>
	</wpt>
	<wpt lat="55.8698" lon="-4.3092">
		<name>Partick station</name>
		<desc>Partick station</desc>
		<link href="https://en.wikipedia.org/wiki/Partick_station" >https://en.wikipedia.org/wiki/Partick_station</link>
	</wpt>
	<wpt lat="55.7906" lon="-4.3352">
		<name>Patterton railway station</name>
		<desc>Patterton railway station</desc>
		<link href="https://en.wikipedia.org/wiki/Patterton_railway_station" >https://en.wikipedia.org/wiki/Patterton_railway_station</link>
	</wpt>
	<wpt lat="56.3916" lon="-3.4384">
		<name>Perth railway station (Scotland)</name>
		<desc>Perth railway station (Scotland)</desc>
		<link href="https://en.wikipedia.org/wiki/Perth_railway_station_(Scotland)" >https://en.wikipedia.org/wiki/Perth_railway_station_(Scotland)</link>
	</wpt>
	<wpt lat="56.7023" lon="-3.7353">
		<name>Pitlochry railway station</name>
		<desc>Pitlochry railway station</desc>
		<link href="https://en.wikipedia.org/wiki/Pitlochry_railway_station" >https://en.wikipedia.org/wiki/Pitlochry_railway_station</link>
	</wpt>
	<wpt lat="57.3336" lon="-5.6659">
		<name>Plockton railway station</name>
		<desc>Plockton railway station</desc>
		<link href="https://en.wikipedia.org/wiki/Plockton_railway_station" >https://en.wikipedia.org/wiki/Plockton_railway_station</link>
	</wpt>
	<wpt lat="55.8248" lon="-4.2872">
		<name>Pollokshaws East railway station</name>
		<desc>Pollokshaws East railway station</desc>
		<link href="https://en.wikipedia.org/wiki/Pollokshaws_East_railway_station" >https://en.wikipedia.org/wiki/Pollokshaws_East_railway_station</link>
	</wpt>
	<wpt lat="55.8239" lon="-4.3014">
		<name>Pollokshaws West railway station</name>
		<desc>Pollokshaws West railway station</desc>
		<link href="https://en.wikipedia.org/wiki/Pollokshaws_West_railway_station" >https://en.wikipedia.org/wiki/Pollokshaws_West_railway_station</link>
	</wpt>
	<wpt lat="55.8407" lon="-4.269">
		<name>Pollokshields East railway station</name>
		<desc>Pollokshields East railway station</desc>
		<link href="https://en.wikipedia.org/wiki/Pollokshields_East_railway_station" >https://en.wikipedia.org/wiki/Pollokshields_East_railway_station</link>
	</wpt>
	<wpt lat="55.8376" lon="-4.2761">
		<name>Pollokshields West railway station</name>
		<desc>Pollokshields West railway station</desc>
		<link href="https://en.wikipedia.org/wiki/Pollokshields_West_railway_station" >https://en.wikipedia.org/wiki/Pollokshields_West_railway_station</link>
	</wpt>
	<wpt lat="55.9846" lon="-3.7149">
		<name>Polmont railway station</name>
		<desc>Polmont railway station</desc>
		<link href="https://en.wikipedia.org/wiki/Polmont_railway_station" >https://en.wikipedia.org/wiki/Polmont_railway_station</link>
	</wpt>
	<wpt lat="55.9335" lon="-4.6902">
		<name>Port Glasgow railway station</name>
		<desc>Port Glasgow railway station</desc>
		<link href="https://en.wikipedia.org/wiki/Port_Glasgow_railway_station" >https://en.wikipedia.org/wiki/Port_Glasgow_railway_station</link>
	</wpt>
	<wpt lat="57.0614" lon="-2.128">
		<name>Portlethen railway station</name>
		<desc>Portlethen railway station</desc>
		<link href="https://en.wikipedia.org/wiki/Portlethen_railway_station" >https://en.wikipedia.org/wiki/Portlethen_railway_station</link>
	</wpt>
	<wpt lat="55.8901" lon="-4.2578">
		<name>Possilpark & Parkhouse railway station</name>
		<desc>Possilpark & Parkhouse railway station</desc>
		<link href="https://en.wikipedia.org/wiki/Possilpark_&_Parkhouse_railway_station" >https://en.wikipedia.org/wiki/Possilpark_&_Parkhouse_railway_station</link>
	</wpt>
	<wpt lat="55.9529" lon="-2.975">
		<name>Prestonpans railway station</name>
		<desc>Prestonpans railway station</desc>
		<link href="https://en.wikipedia.org/wiki/Prestonpans_railway_station" >https://en.wikipedia.org/wiki/Prestonpans_railway_station</link>
	</wpt>
	<wpt lat="55.509" lon="-4.6141">
		<name>Prestwick International Airport railway station</name>
		<desc>Prestwick International Airport railway station</desc>
		<link href="https://en.wikipedia.org/wiki/Prestwick_International_Airport_railway_station" >https://en.wikipedia.org/wiki/Prestwick_International_Airport_railway_station</link>
	</wpt>
	<wpt lat="55.502" lon="-4.6143">
		<name>Prestwick Town railway station</name>
		<desc>Prestwick Town railway station</desc>
		<link href="https://en.wikipedia.org/wiki/Prestwick_Town_railway_station" >https://en.wikipedia.org/wiki/Prestwick_Town_railway_station</link>
	</wpt>
	<wpt lat="55.812" lon="-4.343">
		<name>Priesthill & Darnley railway station</name>
		<desc>Priesthill & Darnley railway station</desc>
		<link href="https://en.wikipedia.org/wiki/Priesthill_&_Darnley_railway_station" >https://en.wikipedia.org/wiki/Priesthill_&_Darnley_railway_station</link>
	</wpt>
	<wpt lat="55.8353" lon="-4.2669">
		<name>Queens Park railway station (Scotland)</name>
		<desc>Queens Park railway station (Scotland)</desc>
		<link href="https://en.wikipedia.org/wiki/Queens_Park_railway_station_(Scotland)" >https://en.wikipedia.org/wiki/Queens_Park_railway_station_(Scotland)</link>
	</wpt>
	<wpt lat="56.6859" lon="-4.577">
		<name>Rannoch railway station</name>
		<desc>Rannoch railway station</desc>
		<link href="https://en.wikipedia.org/wiki/Rannoch_railway_station" >https://en.wikipedia.org/wiki/Rannoch_railway_station</link>
	</wpt>
	<wpt lat="55.9704" lon="-4.5863">
		<name>Renton railway station</name>
		<desc>Renton railway station</desc>
		<link href="https://en.wikipedia.org/wiki/Renton_railway_station" >https://en.wikipedia.org/wiki/Renton_railway_station</link>
	</wpt>
	<wpt lat="55.887581" lon="-4.172291">
		<name>Robroyston railway station</name>
		<desc>Robroyston railway station</desc>
		<link href="https://en.wikipedia.org/wiki/Robroyston_railway_station" >https://en.wikipedia.org/wiki/Robroyston_railway_station</link>
	</wpt>
	<wpt lat="57.9886" lon="-4.1584">
		<name>Rogart railway station</name>
		<desc>Rogart railway station</desc>
		<link href="https://en.wikipedia.org/wiki/Rogart_railway_station" >https://en.wikipedia.org/wiki/Rogart_railway_station</link>
	</wpt>
	<wpt lat="56.0455" lon="-3.4269">
		<name>Rosyth railway station</name>
		<desc>Rosyth railway station</desc>
		<link href="https://en.wikipedia.org/wiki/Rosyth_railway_station" >https://en.wikipedia.org/wiki/Rosyth_railway_station</link>
	</wpt>
	<wpt lat="56.8884" lon="-4.8376">
		<name>Roy Bridge railway station</name>
		<desc>Roy Bridge railway station</desc>
		<link href="https://en.wikipedia.org/wiki/Roy_Bridge_railway_station" >https://en.wikipedia.org/wiki/Roy_Bridge_railway_station</link>
	</wpt>
	<wpt lat="55.8312" lon="-4.2136">
		<name>Rutherglen railway station</name>
		<desc>Rutherglen railway station</desc>
		<link href="https://en.wikipedia.org/wiki/Rutherglen_railway_station" >https://en.wikipedia.org/wiki/Rutherglen_railway_station</link>
	</wpt>
	<wpt lat="55.634" lon="-4.7849">
		<name>Saltcoats railway station</name>
		<desc>Saltcoats railway station</desc>
		<link href="https://en.wikipedia.org/wiki/Saltcoats_railway_station" >https://en.wikipedia.org/wiki/Saltcoats_railway_station</link>
	</wpt>
	<wpt lat="55.371" lon="-3.9248">
		<name>Sanquhar railway station</name>
		<desc>Sanquhar railway station</desc>
		<link href="https://en.wikipedia.org/wiki/Sanquhar_railway_station" >https://en.wikipedia.org/wiki/Sanquhar_railway_station</link>
	</wpt>
	<wpt lat="58.4829" lon="-3.5521">
		<name>Scotscalder railway station</name>
		<desc>Scotscalder railway station</desc>
		<link href="https://en.wikipedia.org/wiki/Scotscalder_railway_station" >https://en.wikipedia.org/wiki/Scotscalder_railway_station</link>
	</wpt>
	<wpt lat="55.8849" lon="-4.3524">
		<name>Scotstounhill railway station</name>
		<desc>Scotstounhill railway station</desc>
		<link href="https://en.wikipedia.org/wiki/Scotstounhill_railway_station" >https://en.wikipedia.org/wiki/Scotstounhill_railway_station</link>
	</wpt>
	<wpt lat="55.9176981" lon="-3.0902511">
		<name>Shawfair railway station</name>
		<desc>Shawfair railway station</desc>
		<link href="https://en.wikipedia.org/wiki/Shawfair_railway_station" >https://en.wikipedia.org/wiki/Shawfair_railway_station</link>
	</wpt>
	<wpt lat="55.8293" lon="-4.2924">
		<name>Shawlands railway station</name>
		<desc>Shawlands railway station</desc>
		<link href="https://en.wikipedia.org/wiki/Shawlands_railway_station" >https://en.wikipedia.org/wiki/Shawlands_railway_station</link>
	</wpt>
	<wpt lat="55.8536" lon="-4.1599">
		<name>Shettleston railway station</name>
		<desc>Shettleston railway station</desc>
		<link href="https://en.wikipedia.org/wiki/Shettleston_railway_station" >https://en.wikipedia.org/wiki/Shettleston_railway_station</link>
	</wpt>
	<wpt lat="55.7774" lon="-3.9578">
		<name>Shieldmuir railway station</name>
		<desc>Shieldmuir railway station</desc>
		<link href="https://en.wikipedia.org/wiki/Shieldmuir_railway_station" >https://en.wikipedia.org/wiki/Shieldmuir_railway_station</link>
	</wpt>
	<wpt lat="55.8186" lon="-3.7989">
		<name>Shotts railway station</name>
		<desc>Shotts railway station</desc>
		<link href="https://en.wikipedia.org/wiki/Shotts_railway_station" >https://en.wikipedia.org/wiki/Shotts_railway_station</link>
	</wpt>
	<wpt lat="55.9075" lon="-4.4055">
		<name>Singer railway station</name>
		<desc>Singer railway station</desc>
		<link href="https://en.wikipedia.org/wiki/Singer_railway_station" >https://en.wikipedia.org/wiki/Singer_railway_station</link>
	</wpt>
	<wpt lat="55.9265" lon="-3.2441">
		<name>Slateford railway station</name>
		<desc>Slateford railway station</desc>
		<link href="https://en.wikipedia.org/wiki/Slateford_railway_station" >https://en.wikipedia.org/wiki/Slateford_railway_station</link>
	</wpt>
	<wpt lat="55.9366" lon="-3.2998">
		<name>South Gyle railway station</name>
		<desc>South Gyle railway station</desc>
		<link href="https://en.wikipedia.org/wiki/South_Gyle_railway_station" >https://en.wikipedia.org/wiki/South_Gyle_railway_station</link>
	</wpt>
	<wpt lat="56.8899" lon="-4.9215">
		<name>Spean Bridge railway station</name>
		<desc>Spean Bridge railway station</desc>
		<link href="https://en.wikipedia.org/wiki/Spean_Bridge_railway_station" >https://en.wikipedia.org/wiki/Spean_Bridge_railway_station</link>
	</wpt>
	<wpt lat="55.8816" lon="-4.2296">
		<name>Springburn railway station</name>
		<desc>Springburn railway station</desc>
		<link href="https://en.wikipedia.org/wiki/Springburn_railway_station" >https://en.wikipedia.org/wiki/Springburn_railway_station</link>
	</wpt>
	<wpt lat="56.295" lon="-3.0528">
		<name>Springfield railway station (Scotland)</name>
		<desc>Springfield railway station (Scotland)</desc>
		<link href="https://en.wikipedia.org/wiki/Springfield_railway_station_(Scotland)" >https://en.wikipedia.org/wiki/Springfield_railway_station_(Scotland)</link>
	</wpt>
	<wpt lat="55.8901" lon="-4.1406">
		<name>Stepps railway station</name>
		<desc>Stepps railway station</desc>
		<link href="https://en.wikipedia.org/wiki/Stepps_railway_station" >https://en.wikipedia.org/wiki/Stepps_railway_station</link>
	</wpt>
	<wpt lat="55.6343" lon="-4.7499">
		<name>Stevenston railway station</name>
		<desc>Stevenston railway station</desc>
		<link href="https://en.wikipedia.org/wiki/Stevenston_railway_station" >https://en.wikipedia.org/wiki/Stevenston_railway_station</link>
	</wpt>
	<wpt lat="55.6821" lon="-4.5181">
		<name>Stewarton railway station</name>
		<desc>Stewarton railway station</desc>
		<link href="https://en.wikipedia.org/wiki/Stewarton_railway_station" >https://en.wikipedia.org/wiki/Stewarton_railway_station</link>
	</wpt>
	<wpt lat="56.1201" lon="-3.9351">
		<name>Stirling railway station (Scotland)</name>
		<desc>Stirling railway station (Scotland)</desc>
		<link href="https://en.wikipedia.org/wiki/Stirling_railway_station_(Scotland)" >https://en.wikipedia.org/wiki/Stirling_railway_station_(Scotland)</link>
	</wpt>
	<wpt lat="56.9667" lon="-2.2256">
		<name>Stonehaven railway station</name>
		<desc>Stonehaven railway station</desc>
		<link href="https://en.wikipedia.org/wiki/Stonehaven_railway_station" >https://en.wikipedia.org/wiki/Stonehaven_railway_station</link>
	</wpt>
	<wpt lat="55.691758" lon="-2.8667745">
		<name>Stow railway station</name>
		<desc>Stow railway station</desc>
		<link href="https://en.wikipedia.org/wiki/Stow_railway_station" >https://en.wikipedia.org/wiki/Stow_railway_station</link>
	</wpt>
	<wpt lat="54.9093" lon="-5.0249">
		<name>Stranraer railway station</name>
		<desc>Stranraer railway station</desc>
		<link href="https://en.wikipedia.org/wiki/Stranraer_railway_station" >https://en.wikipedia.org/wiki/Stranraer_railway_station</link>
	</wpt>
	<wpt lat="57.4228" lon="-5.4286">
		<name>Strathcarron railway station</name>
		<desc>Strathcarron railway station</desc>
		<link href="https://en.wikipedia.org/wiki/Strathcarron_railway_station" >https://en.wikipedia.org/wiki/Strathcarron_railway_station</link>
	</wpt>
	<wpt lat="57.3523" lon="-5.5509">
		<name>Stromeferry railway station</name>
		<desc>Stromeferry railway station</desc>
		<link href="https://en.wikipedia.org/wiki/Stromeferry_railway_station" >https://en.wikipedia.org/wiki/Stromeferry_railway_station</link>
	</wpt>
	<wpt lat="55.8988" lon="-4.2921">
		<name>Summerston railway station</name>
		<desc>Summerston railway station</desc>
		<link href="https://en.wikipedia.org/wiki/Summerston_railway_station" >https://en.wikipedia.org/wiki/Summerston_railway_station</link>
	</wpt>
	<wpt lat="57.8144" lon="-4.0519">
		<name>Tain railway station</name>
		<desc>Tain railway station</desc>
		<link href="https://en.wikipedia.org/wiki/Tain_railway_station" >https://en.wikipedia.org/wiki/Tain_railway_station</link>
	</wpt>
	<wpt lat="56.4309" lon="-5.2394">
		<name>Taynuilt railway station</name>
		<desc>Taynuilt railway station</desc>
		<link href="https://en.wikipedia.org/wiki/Taynuilt_railway_station" >https://en.wikipedia.org/wiki/Taynuilt_railway_station</link>
	</wpt>
	<wpt lat="55.8108" lon="-4.3114">
		<name>Thornliebank railway station</name>
		<desc>Thornliebank railway station</desc>
		<link href="https://en.wikipedia.org/wiki/Thornliebank_railway_station" >https://en.wikipedia.org/wiki/Thornliebank_railway_station</link>
	</wpt>
	<wpt lat="55.7683" lon="-4.2506">
		<name>Thorntonhall railway station</name>
		<desc>Thorntonhall railway station</desc>
		<link href="https://en.wikipedia.org/wiki/Thorntonhall_railway_station" >https://en.wikipedia.org/wiki/Thorntonhall_railway_station</link>
	</wpt>
	<wpt lat="58.59" lon="-3.5278">
		<name>Thurso railway station</name>
		<desc>Thurso railway station</desc>
		<link href="https://en.wikipedia.org/wiki/Thurso_railway_station" >https://en.wikipedia.org/wiki/Thurso_railway_station</link>
	</wpt>
	<wpt lat="55.5426" lon="-4.6555">
		<name>Troon railway station</name>
		<desc>Troon railway station</desc>
		<link href="https://en.wikipedia.org/wiki/Troon_railway_station" >https://en.wikipedia.org/wiki/Troon_railway_station</link>
	</wpt>
	<wpt lat="56.8841" lon="-4.7012">
		<name>Tulloch railway station</name>
		<desc>Tulloch railway station</desc>
		<link href="https://en.wikipedia.org/wiki/Tulloch_railway_station" >https://en.wikipedia.org/wiki/Tulloch_railway_station</link>
	</wpt>
	<wpt lat="55.6058578" lon="-2.7589963">
		<name>Tweedbank railway station</name>
		<desc>Tweedbank railway station</desc>
		<link href="https://en.wikipedia.org/wiki/Tweedbank_railway_station" >https://en.wikipedia.org/wiki/Tweedbank_railway_station</link>
	</wpt>
	<wpt lat="56.4336" lon="-4.7135">
		<name>Tyndrum Lower railway station</name>
		<desc>Tyndrum Lower railway station</desc>
		<link href="https://en.wikipedia.org/wiki/Tyndrum_Lower_railway_station" >https://en.wikipedia.org/wiki/Tyndrum_Lower_railway_station</link>
	</wpt>
	<wpt lat="55.8235" lon="-4.0867">
		<name>Uddingston railway station</name>
		<desc>Uddingston railway station</desc>
		<link href="https://en.wikipedia.org/wiki/Uddingston_railway_station" >https://en.wikipedia.org/wiki/Uddingston_railway_station</link>
	</wpt>
	<wpt lat="55.919" lon="-3.5022">
		<name>Uphall railway station</name>
		<desc>Uphall railway station</desc>
		<link href="https://en.wikipedia.org/wiki/Uphall_railway_station" >https://en.wikipedia.org/wiki/Uphall_railway_station</link>
	</wpt>
	<wpt lat="56.4345" lon="-4.7036">
		<name>Upper Tyndrum railway station</name>
		<desc>Upper Tyndrum railway station</desc>
		<link href="https://en.wikipedia.org/wiki/Upper_Tyndrum_railway_station" >https://en.wikipedia.org/wiki/Upper_Tyndrum_railway_station</link>
	</wpt>
	<wpt lat="55.9405" lon="-3.0147">
		<name>Wallyford railway station</name>
		<desc>Wallyford railway station</desc>
		<link href="https://en.wikipedia.org/wiki/Wallyford_railway_station" >https://en.wikipedia.org/wiki/Wallyford_railway_station</link>
	</wpt>
	<wpt lat="55.8769" lon="-4.8891">
		<name>Wemyss Bay railway station</name>
		<desc>Wemyss Bay railway station</desc>
		<link href="https://en.wikipedia.org/wiki/Wemyss_Bay_railway_station" >https://en.wikipedia.org/wiki/Wemyss_Bay_railway_station</link>
	</wpt>
	<wpt lat="55.8537" lon="-3.5671">
		<name>West Calder railway station</name>
		<desc>West Calder railway station</desc>
		<link href="https://en.wikipedia.org/wiki/West_Calder_railway_station" >https://en.wikipedia.org/wiki/West_Calder_railway_station</link>
	</wpt>
	<wpt lat="55.6967" lon="-4.8514">
		<name>West Kilbride railway station</name>
		<desc>West Kilbride railway station</desc>
		<link href="https://en.wikipedia.org/wiki/West_Kilbride_railway_station" >https://en.wikipedia.org/wiki/West_Kilbride_railway_station</link>
	</wpt>
	<wpt lat="55.9144" lon="-3.2838">
		<name>Wester Hailes railway station</name>
		<desc>Wester Hailes railway station</desc>
		<link href="https://en.wikipedia.org/wiki/Wester_Hailes_railway_station" >https://en.wikipedia.org/wiki/Wester_Hailes_railway_station</link>
	</wpt>
	<wpt lat="55.9048" lon="-4.3351">
		<name>Westerton railway station</name>
		<desc>Westerton railway station</desc>
		<link href="https://en.wikipedia.org/wiki/Westerton_railway_station" >https://en.wikipedia.org/wiki/Westerton_railway_station</link>
	</wpt>
	<wpt lat="55.8539" lon="-4.0188">
		<name>Whifflet railway station</name>
		<desc>Whifflet railway station</desc>
		<link href="https://en.wikipedia.org/wiki/Whifflet_railway_station" >https://en.wikipedia.org/wiki/Whifflet_railway_station</link>
	</wpt>
	<wpt lat="55.9384" lon="-4.7466">
		<name>Whinhill railway station</name>
		<desc>Whinhill railway station</desc>
		<link href="https://en.wikipedia.org/wiki/Whinhill_railway_station" >https://en.wikipedia.org/wiki/Whinhill_railway_station</link>
	</wpt>
	<wpt lat="55.7903" lon="-4.3107">
		<name>Whitecraigs railway station</name>
		<desc>Whitecraigs railway station</desc>
		<link href="https://en.wikipedia.org/wiki/Whitecraigs_railway_station" >https://en.wikipedia.org/wiki/Whitecraigs_railway_station</link>
	</wpt>
	<wpt lat="58.4416" lon="-3.0975">
		<name>Wick railway station</name>
		<desc>Wick railway station</desc>
		<link href="https://en.wikipedia.org/wiki/Wick_railway_station" >https://en.wikipedia.org/wiki/Wick_railway_station</link>
	</wpt>
	<wpt lat="55.7942" lon="-4.2894">
		<name>Williamwood railway station</name>
		<desc>Williamwood railway station</desc>
		<link href="https://en.wikipedia.org/wiki/Williamwood_railway_station" >https://en.wikipedia.org/wiki/Williamwood_railway_station</link>
	</wpt>
	<wpt lat="55.7721" lon="-3.9261">
		<name>Wishaw railway station</name>
		<desc>Wishaw railway station</desc>
		<link href="https://en.wikipedia.org/wiki/Wishaw_railway_station" >https://en.wikipedia.org/wiki/Wishaw_railway_station</link>
	</wpt>
	<wpt lat="55.9315" lon="-4.6567">
		<name>Woodhall railway station</name>
		<desc>Woodhall railway station</desc>
		<link href="https://en.wikipedia.org/wiki/Woodhall_railway_station" >https://en.wikipedia.org/wiki/Woodhall_railway_station</link>
	</wpt>
	<wpt lat="55.8929" lon="-4.3873">
		<name>Yoker railway station</name>
		<desc>Yoker railway station</desc>
		<link href="https://en.wikipedia.org/wiki/Yoker_railway_station" >https://en.wikipedia.org/wiki/Yoker_railway_station</link>
	</wpt>
</gpx>